$GPGGA,102014.40,5100.7479000,N,01347.5135091,E,5,14,0.91,123.7275,M,43.9751,M,1.4,0562*75
$GNGST,102014.40,0.085,0.031,0.018,110.372,0.020,0.029,0.077*42
$GPGGA,102014.50,5100.7479003,N,01347.5135058,E,5,14,0.91,123.7341,M,43.9751,M,1.5,0562*75
$GNGST,102014.50,0.085,0.031,0.018,110.371,0.020,0.029,0.077*40
$GPGGA,102014.60,5100.7478986,N,01347.5135048,E,5,14,0.91,123.7354,M,43.9751,M,1.6,0562*75
$GNGST,102014.60,0.085,0.031,0.018,110.369,0.020,0.030,0.077*42
$GPGGA,102014.70,5100.7479015,N,01347.5135064,E,5,14,0.91,123.7340,M,43.9751,M,1.7,0562*7C
$GNGST,102014.70,0.085,0.031,0.018,110.368,0.020,0.030,0.078*4D
$GPGGA,102014.80,5100.7479040,N,01347.5135084,E,5,14,0.91,123.7209,M,43.9751,M,1.8,0562*7E
$GNGST,102014.80,0.086,0.031,0.018,110.366,0.020,0.030,0.078*4F
$GPGGA,102014.90,5100.7479019,N,01347.5135062,E,5,14,0.91,123.7206,M,43.9751,M,1.9,0562*75
$GNGST,102014.90,0.086,0.031,0.018,110.365,0.020,0.030,0.078*4D
$GPGGA,102015.00,5100.7479014,N,01347.5135026,E,5,14,0.91,123.7252,M,43.9751,M,2.0,0562*7B
$GNGST,102015.00,0.086,0.031,0.018,110.363,0.020,0.030,0.078*43
$GPGGA,102015.10,5100.7479002,N,01347.5135016,E,5,14,0.91,123.7238,M,43.9751,M,1.1,0562*70
$GNGST,102015.10,0.084,0.030,0.018,110.377,0.020,0.029,0.076*42
$GPGGA,102015.20,5100.7479009,N,01347.5134898,E,5,14,0.91,123.7258,M,43.9751,M,1.2,0562*72
$GNGST,102015.20,0.083,0.030,0.018,110.269,0.020,0.029,0.075*4B
$GPGGA,102015.30,5100.7479005,N,01347.5134893,E,5,14,0.91,123.7259,M,43.9751,M,1.3,0562*74
$GNGST,102015.30,0.083,0.030,0.018,110.268,0.020,0.029,0.076*48
$GPGGA,102015.40,5100.7479017,N,01347.5134870,E,5,14,0.91,123.7302,M,43.9751,M,1.4,0562*75
$GNGST,102015.40,0.084,0.030,0.018,110.266,0.020,0.029,0.076*46
$GPGGA,102015.50,5100.7479020,N,01347.5134865,E,5,14,0.91,123.7308,M,43.9751,M,1.5,0562*7F
$GNGST,102015.50,0.084,0.030,0.018,110.264,0.020,0.029,0.076*45
$GPGGA,102015.60,5100.7478999,N,01347.5134815,E,5,14,0.91,123.7367,M,43.9751,M,0.6,0562*7A
$GNGST,102015.60,0.082,0.030,0.017,110.280,0.019,0.028,0.074*4C
$GPGGA,102015.70,5100.7478996,N,01347.5134780,E,5,14,0.91,123.7252,M,43.9751,M,0.7,0562*71
$GNGST,102015.70,0.080,0.029,0.016,109.859,0.018,0.028,0.073*46
$GPGGA,102015.80,5100.7479003,N,01347.5134805,E,5,14,0.91,123.7274,M,43.9751,M,0.8,0562*73
$GNGST,102015.80,0.081,0.030,0.016,109.859,0.018,0.028,0.073*40
$GPGGA,102015.90,5100.7478996,N,01347.5134817,E,5,14,0.91,123.7212,M,43.9751,M,0.9,0562*74
$GNGST,102015.90,0.081,0.030,0.016,109.859,0.018,0.028,0.074*46
$GPGGA,102016.00,5100.7479006,N,01347.5134876,E,5,14,0.91,123.7075,M,43.9751,M,1.0,0562*73
$GNGST,102016.00,0.081,0.030,0.016,109.859,0.018,0.029,0.074*4D
$GPGGA,102016.10,5100.7479034,N,01347.5134860,E,5,14,0.91,123.7154,M,43.9751,M,1.1,0562*77
$GNGST,102016.10,0.081,0.030,0.017,109.859,0.019,0.029,0.074*4C
$GPGGA,102016.20,5100.7479071,N,01347.5134825,E,5,14,0.91,123.7190,M,43.9751,M,1.2,0562*7F
$GNGST,102016.20,0.082,0.030,0.017,109.859,0.019,0.029,0.074*4C
$GPGGA,102016.30,5100.7479082,N,01347.5134814,E,5,14,0.91,123.7186,M,43.9751,M,1.3,0562*76
$GNGST,102016.30,0.082,0.030,0.017,109.859,0.019,0.029,0.074*4D
$GPGGA,102016.40,5100.7479047,N,01347.5134827,E,5,14,0.91,123.7224,M,43.9751,M,1.4,0562*74
$GNGST,102016.40,0.082,0.030,0.017,109.860,0.019,0.029,0.075*41
$GPGGA,102016.50,5100.7479024,N,01347.5134836,E,5,14,0.91,123.7239,M,43.9751,M,1.5,0562*7D
$GNGST,102016.50,0.082,0.030,0.017,109.860,0.019,0.029,0.075*40
$GPGGA,102016.60,5100.7479000,N,01347.5134855,E,5,14,0.91,123.7198,M,43.9751,M,0.6,0562*77
$GNGST,102016.60,0.081,0.029,0.017,110.703,0.019,0.028,0.073*4D
$GPGGA,102016.70,5100.7478969,N,01347.5134800,E,5,14,0.91,123.7281,M,43.9751,M,0.7,0562*7B
$GNGST,102016.70,0.080,0.029,0.017,110.539,0.019,0.028,0.072*47
$GPGGA,102016.80,5100.7478950,N,01347.5134755,E,5,14,0.91,123.7405,M,43.9751,M,0.8,0562*74
$GNGST,102016.80,0.080,0.029,0.017,110.534,0.019,0.028,0.073*44
$GPGGA,102016.90,5100.7478960,N,01347.5134751,E,5,14,0.91,123.7400,M,43.9751,M,0.9,0562*76
$GNGST,102016.90,0.080,0.029,0.017,110.528,0.019,0.028,0.073*48
$GPGGA,102017.00,5100.7478984,N,01347.5134799,E,5,14,0.91,123.7178,M,43.9751,M,1.0,0562*72
$GNGST,102017.00,0.081,0.029,0.017,110.523,0.019,0.028,0.073*4A
$GPGGA,102017.10,5100.7478988,N,01347.5134760,E,5,14,0.91,123.7349,M,43.9751,M,1.1,0562*78
$GNGST,102017.10,0.081,0.030,0.017,110.518,0.019,0.028,0.073*4B
$GPGGA,102017.20,5100.7478979,N,01347.5134759,E,5,14,0.91,123.7330,M,43.9751,M,1.2,0562*72
$GNGST,102017.20,0.081,0.030,0.017,110.513,0.019,0.028,0.074*44
$GPGGA,102017.30,5100.7478969,N,01347.5134742,E,5,14,0.91,123.7339,M,43.9751,M,1.3,0562*70
$GNGST,102017.30,0.081,0.030,0.017,110.508,0.019,0.029,0.074*4E
$GPGGA,102017.40,5100.7478977,N,01347.5134757,E,5,14,0.91,123.7402,M,43.9751,M,1.4,0562*74
$GNGST,102017.40,0.082,0.030,0.017,110.504,0.019,0.029,0.074*46
$GPGGA,102017.50,5100.7478990,N,01347.5134754,E,5,14,0.91,123.7369,M,43.9751,M,1.5,0562*74
$GNGST,102017.50,0.082,0.030,0.018,110.499,0.019,0.029,0.074*4D
$GPGGA,102017.60,5100.7478952,N,01347.5134785,E,5,14,0.91,123.7379,M,43.9751,M,0.6,0562*76
$GNGST,102017.60,0.079,0.029,0.016,109.897,0.018,0.028,0.072*40
$GPGGA,102017.70,5100.7478865,N,01347.5134763,E,5,14,0.91,123.7160,M,43.9751,M,0.7,0562*71
$GNGST,102017.70,0.078,0.029,0.016,109.744,0.018,0.028,0.071*42
$GPGGA,102017.80,5100.7478881,N,01347.5134772,E,5,14,0.91,123.7169,M,43.9751,M,0.8,0562*72
$GNGST,102017.80,0.079,0.029,0.016,109.743,0.018,0.028,0.071*4B
$GPGGA,102017.90,5100.7478887,N,01347.5134798,E,5,14,0.91,123.7087,M,43.9751,M,0.9,0562*71
$GNGST,102017.90,0.079,0.029,0.016,109.743,0.018,0.028,0.072*49
$GPGGA,102018.00,5100.7478895,N,01347.5134841,E,5,14,0.91,123.6958,M,43.9751,M,1.0,0562*7D
$GNGST,102018.00,0.079,0.029,0.016,109.742,0.018,0.028,0.072*4E
$GPGGA,102018.10,5100.7478878,N,01347.5134849,E,5,14,0.91,123.7004,M,43.9751,M,1.1,0562*77
$GNGST,102018.10,0.079,0.029,0.016,109.741,0.018,0.028,0.072*4C
$GPGGA,102018.20,5100.7478887,N,01347.5134852,E,5,14,0.91,123.6965,M,43.9751,M,1.2,0562*72
$GNGST,102018.20,0.080,0.029,0.016,109.741,0.018,0.028,0.072*49
$GPGGA,102018.30,5100.7478897,N,01347.5134792,E,5,14,0.91,123.7055,M,43.9751,M,1.3,0562*7B
$GNGST,102018.30,0.080,0.029,0.016,109.740,0.018,0.028,0.073*48
$GPGGA,102018.40,5100.7478902,N,01347.5134807,E,5,14,0.91,123.7023,M,43.9751,M,1.4,0562*74
$GNGST,102018.40,0.080,0.030,0.016,109.740,0.018,0.028,0.073*47
$GPGGA,102018.50,5100.7478928,N,01347.5134816,E,5,14,0.91,123.7050,M,43.9751,M,1.5,0562*78
$GNGST,102018.50,0.080,0.030,0.016,109.739,0.018,0.028,0.073*48
$GPGGA,102018.60,5100.7478875,N,01347.5134753,E,5,14,0.91,123.7058,M,43.9751,M,0.6,0562*76
$GNGST,102018.60,0.078,0.029,0.016,110.072,0.018,0.028,0.071*46
$GPGGA,102018.70,5100.7478796,N,01347.5134495,E,5,14,0.91,123.7555,M,43.9751,M,0.7,0562*75
$GNGST,102018.70,0.078,0.029,0.016,109.922,0.018,0.027,0.070*4D
$GPGGA,102018.80,5100.7478791,N,01347.5134563,E,5,14,0.91,123.7366,M,43.9751,M,0.8,0562*7C
$GNGST,102018.80,0.078,0.029,0.016,109.920,0.018,0.028,0.071*4E
$GPGGA,102018.90,5100.7478810,N,01347.5134543,E,5,14,0.91,123.7301,M,43.9751,M,0.9,0562*79
$GNGST,102018.90,0.078,0.029,0.016,109.917,0.018,0.028,0.071*4B
$GPGGA,102019.00,5100.7478844,N,01347.5134566,E,5,14,0.91,123.7318,M,43.9751,M,1.0,0562*77
$GNGST,102019.00,0.078,0.029,0.016,109.915,0.018,0.028,0.071*41
$GPGGA,102019.10,5100.7478850,N,01347.5134535,E,5,14,0.91,123.7337,M,43.9751,M,1.1,0562*79
$GNGST,102019.10,0.079,0.029,0.016,109.912,0.018,0.028,0.071*46
$GPGGA,102019.20,5100.7478843,N,01347.5134546,E,5,14,0.91,123.7310,M,43.9751,M,1.2,0562*7A
$GNGST,102019.20,0.079,0.029,0.016,109.910,0.018,0.028,0.071*47
$GPGGA,102019.30,5100.7478850,N,01347.5134585,E,5,14,0.91,123.7163,M,43.9751,M,1.3,0562*71
$GNGST,102019.30,0.079,0.029,0.016,109.908,0.018,0.028,0.072*4C
$GPGGA,102019.40,5100.7478856,N,01347.5134580,E,5,14,0.91,123.7186,M,43.9751,M,1.4,0562*79
$GNGST,102019.40,0.079,0.029,0.016,109.905,0.018,0.028,0.072*46
$GPGGA,102019.50,5100.7478874,N,01347.5134617,E,5,14,0.91,123.7191,M,43.9751,M,1.5,0562*72
$GNGST,102019.50,0.080,0.029,0.016,109.903,0.018,0.028,0.072*47
$GPGGA,102019.60,5100.7478865,N,01347.5134618,E,5,15,0.89,123.7139,M,43.9751,M,0.6,0562*76
$GNGST,102019.60,0.076,0.028,0.016,108.467,0.018,0.027,0.068*46
$GPGGA,102019.70,5100.7478822,N,01347.5134484,E,5,15,0.89,123.7446,M,43.9751,M,0.7,0562*7F
$GNGST,102019.70,0.088,0.027,0.016,114.097,0.018,0.025,0.082*49
$GPGGA,102019.80,5100.7478810,N,01347.5134506,E,5,15,0.89,123.7364,M,43.9751,M,0.8,0562*72
$GNGST,102019.80,0.088,0.027,0.016,114.093,0.018,0.026,0.083*40
$GPGGA,102019.90,5100.7478796,N,01347.5134474,E,5,15,0.89,123.7461,M,43.9751,M,0.9,0562*75
$GNGST,102019.90,0.089,0.027,0.016,114.090,0.019,0.026,0.083*42
$GPGGA,102020.00,5100.7478798,N,01347.5134458,E,5,15,0.89,123.7504,M,43.9751,M,1.0,0562*7C
$GNGST,102020.00,0.089,0.027,0.016,114.087,0.019,0.026,0.083*47
$GPGGA,102020.10,5100.7478746,N,01347.5134433,E,5,15,0.89,123.7618,M,43.9751,M,1.1,0562*7C
$GNGST,102020.10,0.089,0.027,0.016,114.083,0.019,0.026,0.083*42
$GPGGA,102020.20,5100.7478738,N,01347.5134403,E,5,15,0.89,123.7762,M,43.9751,M,1.2,0562*7A
$GNGST,102020.20,0.090,0.027,0.016,114.080,0.019,0.026,0.084*4D
$GPGGA,102020.30,5100.7478747,N,01347.5134419,E,5,15,0.89,123.7724,M,43.9751,M,1.3,0562*7B
$GNGST,102020.30,0.090,0.027,0.016,114.077,0.019,0.026,0.084*44
$GPGGA,102020.40,5100.7478745,N,01347.5134361,E,5,15,0.89,123.7667,M,43.9751,M,1.4,0562*77
$GNGST,102020.40,0.090,0.028,0.016,114.074,0.019,0.026,0.084*4F
$GPGGA,102020.50,5100.7478722,N,01347.5134331,E,5,15,0.89,123.7783,M,43.9751,M,1.5,0562*78
$GNGST,102020.50,0.090,0.028,0.017,114.071,0.019,0.026,0.084*4A
$GPGGA,102020.60,5100.7478727,N,01347.5134343,E,5,15,0.89,123.7835,M,43.9751,M,1.6,0562*7A
$GNGST,102020.60,0.091,0.028,0.017,114.068,0.019,0.026,0.085*41
$GPGGA,102020.70,5100.7478721,N,01347.5134358,E,5,15,0.89,123.7985,M,43.9751,M,1.7,0562*7C
$GNGST,102020.70,0.091,0.028,0.017,114.065,0.019,0.026,0.085*4D
$GPGGA,102020.80,5100.7478727,N,01347.5134391,E,5,15,0.89,123.7975,M,43.9751,M,1.8,0562*70
$GNGST,102020.80,0.091,0.028,0.017,114.062,0.019,0.026,0.085*45
$GPGGA,102020.90,5100.7478726,N,01347.5134439,E,5,15,0.89,123.7831,M,43.9751,M,1.9,0562*75
$GNGST,102020.90,0.091,0.028,0.017,114.059,0.019,0.026,0.085*4C
$GPGGA,102021.00,5100.7478762,N,01347.5134425,E,5,15,0.89,123.7837,M,43.9751,M,1.0,0562*7F
$GNGST,102021.00,0.089,0.027,0.016,114.087,0.019,0.026,0.083*46
$GPGGA,102021.10,5100.7478650,N,01347.5134274,E,5,14,0.89,123.8040,M,43.9751,M,1.1,0562*7B
$GNGST,102021.10,0.088,0.027,0.017,114.565,0.019,0.025,0.082*4C
$GPGGA,102021.20,5100.7478660,N,01347.5134300,E,5,14,0.89,123.8009,M,43.9751,M,1.2,0562*77
$GNGST,102021.20,0.089,0.027,0.017,114.558,0.019,0.026,0.083*42
$GPGGA,102021.30,5100.7478670,N,01347.5134341,E,5,14,0.89,123.7871,M,43.9751,M,1.3,0562*7B
$GNGST,102021.30,0.089,0.027,0.017,114.550,0.019,0.026,0.083*4B
$GPGGA,102021.40,5100.7478677,N,01347.5134337,E,5,14,0.89,123.7910,M,43.9751,M,1.4,0562*7B
$GNGST,102021.40,0.089,0.027,0.017,114.543,0.019,0.026,0.083*4E
$GPGGA,102021.50,5100.7478667,N,01347.5134361,E,5,14,0.89,123.7792,M,43.9751,M,1.5,0562*7D
$GNGST,102021.50,0.089,0.027,0.017,114.536,0.019,0.026,0.083*4D
$GPGGA,102021.60,5100.7478660,N,01347.5134349,E,5,15,0.89,123.7825,M,43.9751,M,0.6,0562*73
$GNGST,102021.60,0.086,0.026,0.015,113.429,0.017,0.025,0.081*45
$GPGGA,102021.70,5100.7478609,N,01347.5134300,E,5,15,0.89,123.8196,M,43.9751,M,0.7,0562*7F
$GNGST,102021.70,0.086,0.026,0.015,113.311,0.017,0.025,0.080*49
$GPGGA,102021.80,5100.7478605,N,01347.5134270,E,5,15,0.89,123.8145,M,43.9751,M,0.8,0562*7B
$GNGST,102021.80,0.086,0.026,0.015,113.311,0.017,0.025,0.080*46
$GPGGA,102021.90,5100.7478635,N,01347.5134281,E,5,15,0.89,123.8071,M,43.9751,M,0.9,0562*70
$GNGST,102021.90,0.086,0.026,0.015,113.311,0.017,0.025,0.081*46
$GPGGA,102022.00,5100.7478626,N,01347.5134294,E,5,15,0.89,123.8041,M,43.9751,M,1.0,0562*77
$GNGST,102022.00,0.086,0.026,0.015,113.311,0.017,0.025,0.081*4C
$GPGGA,102022.10,5100.7478616,N,01347.5134280,E,5,15,0.89,123.8071,M,43.9751,M,1.1,0562*72
$GNGST,102022.10,0.087,0.027,0.015,113.311,0.017,0.025,0.081*4D
$GPGGA,102022.20,5100.7478590,N,01347.5134268,E,5,15,0.89,123.8076,M,43.9751,M,1.2,0562*7E
$GNGST,102022.20,0.087,0.027,0.015,113.311,0.017,0.025,0.081*4E
$GPGGA,102022.30,5100.7478584,N,01347.5134256,E,5,15,0.89,123.8143,M,43.9751,M,1.3,0562*71
$GNGST,102022.30,0.087,0.027,0.015,113.311,0.017,0.025,0.082*4C
$GPGGA,102022.40,5100.7478570,N,01347.5134218,E,5,15,0.89,123.8268,M,43.9751,M,1.4,0562*7A
$GNGST,102022.40,0.087,0.027,0.015,113.312,0.018,0.025,0.082*47
$GPGGA,102022.50,5100.7478547,N,01347.5134249,E,5,15,0.89,123.8149,M,43.9751,M,1.5,0562*7A
$GNGST,102022.50,0.088,0.027,0.015,113.312,0.018,0.025,0.082*49
$GPGGA,102022.60,5100.7478586,N,01347.5134236,E,5,15,0.89,123.8211,M,43.9751,M,0.6,0562*70
$GNGST,102022.60,0.085,0.026,0.015,113.502,0.017,0.025,0.080*4C
$GPGGA,102022.70,5100.7478470,N,01347.5134105,E,5,15,0.89,123.8669,M,43.9751,M,0.7,0562*70
$GNGST,102022.70,0.085,0.026,0.015,113.385,0.017,0.025,0.079*42
$GPGGA,102022.80,5100.7478489,N,01347.5134133,E,5,15,0.89,123.8597,M,43.9751,M,0.8,0562*71
$GNGST,102022.80,0.085,0.026,0.015,113.384,0.017,0.025,0.079*4C
$GPGGA,102022.90,5100.7478486,N,01347.5134140,E,5,15,0.89,123.8593,M,43.9751,M,0.9,0562*7E
$GNGST,102022.90,0.085,0.026,0.015,113.383,0.017,0.025,0.080*4C
$GPGGA,102023.00,5100.7478517,N,01347.5134175,E,5,15,0.89,123.8665,M,43.9751,M,1.0,0562*7B
$GNGST,102023.00,0.085,0.026,0.015,113.381,0.017,0.025,0.080*46
$GPGGA,102023.10,5100.7478548,N,01347.5134197,E,5,15,0.89,123.8536,M,43.9751,M,1.1,0562*78
$GNGST,102023.10,0.086,0.026,0.015,113.380,0.017,0.025,0.080*45
$GPGGA,102023.20,5100.7478572,N,01347.5134181,E,5,15,0.89,123.8573,M,43.9751,M,1.2,0562*77
$GNGST,102023.20,0.086,0.026,0.015,113.379,0.017,0.025,0.080*40
$GPGGA,102023.30,5100.7478580,N,01347.5134191,E,5,15,0.89,123.8405,M,43.9751,M,1.3,0562*7B
$GNGST,102023.30,0.086,0.026,0.015,113.378,0.017,0.025,0.081*41
$GPGGA,102023.40,5100.7478580,N,01347.5134198,E,5,15,0.89,123.8370,M,43.9751,M,1.4,0562*77
$GNGST,102023.40,0.086,0.027,0.015,113.377,0.017,0.025,0.081*48
$GPGGA,102023.50,5100.7478561,N,01347.5134175,E,5,15,0.89,123.8341,M,43.9751,M,1.5,0562*79
$GNGST,102023.50,0.087,0.027,0.015,113.376,0.018,0.025,0.081*46
$GPGGA,102023.60,5100.7478569,N,01347.5134152,E,5,15,0.89,123.8434,M,43.9751,M,0.6,0562*70
$GNGST,102023.60,0.084,0.026,0.015,113.386,0.017,0.024,0.079*41
$GPGGA,102023.70,5100.7478452,N,01347.5133977,E,5,15,0.89,123.8002,M,43.9751,M,0.7,0562*70
$GNGST,102023.70,0.083,0.026,0.015,113.119,0.017,0.024,0.078*42
$GPGGA,102023.80,5100.7478462,N,01347.5133964,E,5,14,0.89,123.8022,M,43.9751,M,0.8,0562*72
$GNGST,102023.80,0.084,0.026,0.015,113.118,0.017,0.024,0.078*4B
$GPGGA,102023.90,5100.7478458,N,01347.5133928,E,5,14,0.89,123.8126,M,43.9751,M,0.9,0562*76
$GNGST,102023.90,0.084,0.026,0.015,113.118,0.017,0.024,0.078*4A
$GPGGA,102024.00,5100.7478454,N,01347.5133944,E,5,14,0.89,123.8090,M,43.9751,M,1.0,0562*7A
$GNGST,102024.00,0.084,0.026,0.015,113.118,0.017,0.025,0.079*44
$GPGGA,102024.10,5100.7478457,N,01347.5133959,E,5,14,0.89,123.8100,M,43.9751,M,1.1,0562*7D
$GNGST,102024.10,0.084,0.026,0.015,113.118,0.017,0.025,0.079*45
$GPGGA,102024.20,5100.7478457,N,01347.5133964,E,5,14,0.89,123.8020,M,43.9751,M,1.2,0562*70
$GNGST,102024.20,0.085,0.026,0.015,113.117,0.017,0.025,0.079*48
$GPGGA,102024.30,5100.7478455,N,01347.5133951,E,5,14,0.89,123.8040,M,43.9751,M,1.3,0562*72
$GNGST,102024.30,0.085,0.026,0.015,113.117,0.017,0.025,0.079*49
$GPGGA,102024.40,5100.7478477,N,01347.5133955,E,5,14,0.89,123.8123,M,43.9751,M,1.4,0562*72
$GNGST,102024.40,0.085,0.026,0.015,113.117,0.017,0.025,0.080*48
$GPGGA,102024.50,5100.7478469,N,01347.5133906,E,5,14,0.89,123.8184,M,43.9751,M,1.5,0562*76
$GNGST,102024.50,0.085,0.026,0.015,113.117,0.017,0.025,0.080*49
$GPGGA,102024.60,5100.7478434,N,01347.5133909,E,5,14,0.89,123.8098,M,43.9751,M,0.6,0562*7C
$GNGST,102024.60,0.083,0.026,0.014,113.119,0.017,0.024,0.078*45
$GPGGA,102024.70,5100.7478425,N,01347.5133826,E,5,14,0.89,123.8047,M,43.9751,M,0.7,0562*72
$GNGST,102024.70,0.083,0.026,0.015,113.245,0.017,0.024,0.078*4F
$GPGGA,102024.80,5100.7478329,N,01347.5133684,E,5,14,0.89,123.8194,M,43.9751,M,0.8,0562*70
$GNGST,102024.80,0.083,0.026,0.015,113.132,0.017,0.024,0.077*4C
$GPGGA,102024.90,5100.7478348,N,01347.5133689,E,5,14,0.89,123.8291,M,43.9751,M,0.9,0562*7C
$GNGST,102024.90,0.083,0.026,0.015,113.131,0.017,0.024,0.078*41
$GPGGA,102025.00,5100.7478345,N,01347.5133706,E,5,14,0.89,123.8268,M,43.9751,M,1.0,0562*71
$GNGST,102025.00,0.083,0.026,0.015,113.130,0.017,0.024,0.078*48
$GPGGA,102025.10,5100.7478343,N,01347.5133715,E,5,14,0.89,123.8336,M,43.9751,M,1.1,0562*7F
$GNGST,102025.10,0.083,0.026,0.015,113.129,0.017,0.024,0.078*41
$GPGGA,102025.20,5100.7478367,N,01347.5133752,E,5,14,0.89,123.8295,M,43.9751,M,1.2,0562*72
$GNGST,102025.20,0.084,0.026,0.015,113.128,0.017,0.024,0.078*44
$GPGGA,102025.30,5100.7478382,N,01347.5133782,E,5,14,0.89,123.8182,M,43.9751,M,1.3,0562*71
$GNGST,102025.30,0.084,0.026,0.015,113.127,0.017,0.025,0.078*4B
$GPGGA,102025.40,5100.7478379,N,01347.5133807,E,5,14,0.89,123.8066,M,43.9751,M,1.4,0562*7C
$GNGST,102025.40,0.084,0.026,0.015,113.126,0.017,0.025,0.079*4C
$GPGGA,102025.50,5100.7478363,N,01347.5133783,E,5,14,0.89,123.8118,M,43.9751,M,1.5,0562*7C
$GNGST,102025.50,0.084,0.026,0.015,113.125,0.017,0.025,0.079*4E
$GPGGA,102025.60,5100.7478341,N,01347.5133712,E,5,15,0.89,123.7951,M,43.9751,M,0.6,0562*7E
$GNGST,102025.60,0.082,0.025,0.014,113.141,0.017,0.024,0.077*44
$GPGGA,102025.70,5100.7478244,N,01347.5133549,E,5,15,0.89,123.8048,M,43.9751,M,0.7,0562*78
$GNGST,102025.70,0.081,0.025,0.014,113.033,0.016,0.024,0.076*42
$GPGGA,102025.80,5100.7478252,N,01347.5133530,E,5,15,0.89,123.7999,M,43.9751,M,0.8,0562*7B
$GNGST,102025.80,0.082,0.025,0.014,113.031,0.016,0.024,0.076*4C
$GPGGA,102025.90,5100.7478278,N,01347.5133490,E,5,15,0.89,123.8107,M,43.9751,M,0.9,0562*78
$GNGST,102025.90,0.082,0.025,0.014,113.030,0.017,0.024,0.077*4C
$GPGGA,102026.00,5100.7478277,N,01347.5133469,E,5,15,0.89,123.8107,M,43.9751,M,1.0,0562*73
$GNGST,102026.00,0.082,0.025,0.014,113.029,0.017,0.024,0.077*4E
$GPGGA,102026.10,5100.7478286,N,01347.5133466,E,5,15,0.89,123.8110,M,43.9751,M,1.1,0562*74
$GNGST,102026.10,0.082,0.026,0.014,113.028,0.017,0.024,0.077*4D
$GPGGA,102026.20,5100.7478290,N,01347.5133486,E,5,15,0.89,123.7978,M,43.9751,M,1.2,0562*74
$GNGST,102026.20,0.083,0.026,0.014,113.027,0.017,0.024,0.077*40
$GPGGA,102026.30,5100.7478294,N,01347.5133487,E,5,15,0.89,123.8076,M,43.9751,M,1.3,0562*79
$GNGST,102026.30,0.083,0.026,0.015,113.026,0.017,0.024,0.077*41
$GPGGA,102026.40,5100.7478288,N,01347.5133549,E,5,15,0.89,123.7859,M,43.9751,M,1.4,0562*7D
$GNGST,102026.40,0.083,0.026,0.015,113.025,0.017,0.024,0.078*4A
$GPGGA,102026.50,5100.7478266,N,01347.5133538,E,5,15,0.89,123.7930,M,43.9751,M,1.5,0562*75
$GNGST,102026.50,0.083,0.026,0.015,113.024,0.017,0.024,0.078*4A
$GPGGA,102026.60,5100.7478265,N,01347.5133543,E,5,15,0.89,123.7882,M,43.9751,M,0.6,0562*73
$GNGST,102026.60,0.081,0.025,0.015,112.859,0.017,0.024,0.076*45
$GPGGA,102026.70,5100.7478243,N,01347.5133480,E,5,15,0.89,123.8183,M,43.9751,M,0.7,0562*7E
$GNGST,102026.70,0.081,0.025,0.015,112.753,0.017,0.024,0.075*42
$GPGGA,102026.80,5100.7478246,N,01347.5133457,E,5,15,0.89,123.8275,M,43.9751,M,0.8,0562*7B
$GNGST,102026.80,0.081,0.025,0.015,112.753,0.017,0.024,0.075*4D
$GPGGA,102026.90,5100.7478242,N,01347.5133483,E,5,15,0.89,123.8154,M,43.9751,M,0.9,0562*76
$GNGST,102026.90,0.081,0.025,0.015,112.753,0.017,0.024,0.076*4F
$GPGGA,102027.00,5100.7478221,N,01347.5133442,E,5,15,0.89,123.8195,M,43.9751,M,1.0,0562*73
$GNGST,102027.00,0.081,0.025,0.015,112.753,0.017,0.024,0.076*47
$GPGGA,102027.10,5100.7478212,N,01347.5133507,E,5,15,0.89,123.8109,M,43.9751,M,1.1,0562*76
$GNGST,102027.10,0.082,0.026,0.015,112.753,0.017,0.024,0.076*46
$GPGGA,102027.20,5100.7478229,N,01347.5133511,E,5,15,0.89,123.8223,M,43.9751,M,1.2,0562*72
$GNGST,102027.20,0.082,0.026,0.015,112.753,0.017,0.024,0.076*45
$GPGGA,102027.30,5100.7478228,N,01347.5133571,E,5,14,0.89,123.8207,M,43.9751,M,1.3,0562*72
$GNGST,102027.30,0.082,0.026,0.015,112.753,0.017,0.024,0.077*45
$GPGGA,102027.40,5100.7478225,N,01347.5133571,E,5,14,0.89,123.8117,M,43.9751,M,1.4,0562*7D
$GNGST,102027.40,0.082,0.026,0.015,112.753,0.017,0.024,0.077*42
$GPGGA,102027.50,5100.7478232,N,01347.5133555,E,5,14,0.89,123.8185,M,43.9751,M,1.5,0562*76
$GNGST,102027.50,0.083,0.026,0.015,112.753,0.017,0.024,0.077*42
$GPGGA,102027.60,5100.7478230,N,01347.5133491,E,5,15,0.89,123.8164,M,43.9751,M,0.6,0562*72
$GNGST,102027.60,0.081,0.025,0.016,114.555,0.018,0.024,0.075*4C
$GPGGA,102027.70,5100.7478178,N,01347.5133373,E,5,15,0.89,123.7931,M,43.9751,M,0.7,0562*71
$GNGST,102027.70,0.080,0.025,0.016,114.444,0.018,0.024,0.074*4C
$GPGGA,102027.80,5100.7478193,N,01347.5133379,E,5,15,0.89,123.7988,M,43.9751,M,0.8,0562*7C
$GNGST,102027.80,0.080,0.025,0.016,114.431,0.018,0.024,0.075*40
$GPGGA,102027.90,5100.7478190,N,01347.5133371,E,5,15,0.89,123.8036,M,43.9751,M,0.9,0562*74
$GNGST,102027.90,0.081,0.025,0.016,114.418,0.018,0.024,0.075*4B
$GPGGA,102028.00,5100.7478184,N,01347.5133340,E,5,15,0.89,123.8057,M,43.9751,M,1.0,0562*7A
$GNGST,102028.00,0.081,0.025,0.016,114.405,0.018,0.024,0.075*41
$GPGGA,102028.10,5100.7478161,N,01347.5133384,E,5,15,0.89,123.7966,M,43.9751,M,1.1,0562*7D
$GNGST,102028.10,0.081,0.025,0.016,114.393,0.018,0.024,0.075*48
$GPGGA,102028.20,5100.7478164,N,01347.5133350,E,5,15,0.89,123.8080,M,43.9751,M,1.2,0562*7F
$GNGST,102028.20,0.081,0.025,0.016,114.381,0.018,0.024,0.076*4B
$GPGGA,102028.30,5100.7478158,N,01347.5133366,E,5,15,0.89,123.7981,M,43.9751,M,1.3,0562*72
$GNGST,102028.30,0.082,0.025,0.016,114.369,0.018,0.024,0.076*4F
$GPGGA,102028.40,5100.7478172,N,01347.5133407,E,5,14,0.89,123.8069,M,43.9751,M,1.4,0562*7B
$GNGST,102028.40,0.082,0.025,0.016,114.357,0.018,0.024,0.076*45
$GPGGA,102028.50,5100.7478152,N,01347.5133370,E,5,14,0.89,123.8124,M,43.9751,M,1.5,0562*76
$GNGST,102028.50,0.082,0.025,0.016,114.345,0.018,0.024,0.076*47
$GPGGA,102028.60,5100.7478154,N,01347.5133366,E,5,14,0.89,123.8204,M,43.9751,M,1.6,0562*76
$GNGST,102028.60,0.082,0.026,0.016,114.333,0.018,0.024,0.077*47
$GPGGA,102028.70,5100.7478162,N,01347.5133382,E,5,14,0.89,123.8208,M,43.9751,M,0.7,0562*74
$GNGST,102028.70,0.079,0.025,0.015,113.073,0.017,0.023,0.074*49
$GPGGA,102028.80,5100.7478051,N,01347.5133342,E,5,14,0.89,123.8215,M,43.9751,M,0.8,0562*75
$GNGST,102028.80,0.079,0.025,0.015,112.968,0.017,0.023,0.074*44
$GPGGA,102028.90,5100.7478074,N,01347.5133402,E,5,14,0.89,123.8018,M,43.9751,M,0.9,0562*7E
$GNGST,102028.90,0.079,0.025,0.015,112.965,0.017,0.023,0.074*48
$GPGGA,102029.00,5100.7478065,N,01347.5133380,E,5,14,0.89,123.8080,M,43.9751,M,1.0,0562*72
$GNGST,102029.00,0.079,0.025,0.015,112.962,0.017,0.024,0.074*40
$GPGGA,102029.10,5100.7478064,N,01347.5133405,E,5,14,0.89,123.8047,M,43.9751,M,1.1,0562*72
$GNGST,102029.10,0.080,0.025,0.015,112.959,0.017,0.024,0.074*4F
$GPGGA,102029.20,5100.7478075,N,01347.5133400,E,5,14,0.89,123.8110,M,43.9751,M,1.2,0562*74
$GNGST,102029.20,0.080,0.025,0.015,112.956,0.017,0.024,0.074*43
$GPGGA,102029.30,5100.7478088,N,01347.5133415,E,5,14,0.89,123.8128,M,43.9751,M,1.3,0562*79
$GNGST,102029.30,0.080,0.025,0.015,112.953,0.017,0.024,0.075*46
$GPGGA,102029.40,5100.7478075,N,01347.5133373,E,5,14,0.89,123.8132,M,43.9751,M,1.4,0562*77
$GNGST,102029.40,0.080,0.025,0.015,112.951,0.017,0.024,0.075*43
$GPGGA,102029.50,5100.7478052,N,01347.5133401,E,5,14,0.89,123.7962,M,43.9751,M,1.5,0562*72
$GNGST,102029.50,0.081,0.025,0.015,112.948,0.017,0.024,0.075*4B
$GPGGA,102029.60,5100.7478060,N,01347.5133426,E,5,14,0.89,123.7912,M,43.9751,M,0.6,0562*70
$GNGST,102029.60,0.078,0.024,0.015,112.974,0.017,0.023,0.073*41
$GPGGA,102029.70,5100.7478049,N,01347.5133348,E,5,15,0.89,123.7636,M,43.9751,M,0.7,0562*7C
$GNGST,102029.70,0.083,0.026,0.014,112.531,0.016,0.025,0.077*49
$GPGGA,102029.80,5100.7478037,N,01347.5133391,E,5,14,0.89,123.7425,M,43.9751,M,0.8,0562*70
$GNGST,102029.80,0.082,0.028,0.019,88.801,0.019,0.028,0.074*79
$GPGGA,102029.90,5100.7478032,N,01347.5133399,E,5,14,0.89,123.7383,M,43.9751,M,0.9,0562*76
$GNGST,102029.90,0.082,0.028,0.019,88.802,0.019,0.028,0.075*7A
$GPGGA,102030.00,5100.7478043,N,01347.5133372,E,5,14,0.89,123.7473,M,43.9751,M,1.0,0562*74
$GNGST,102030.00,0.082,0.029,0.019,88.804,0.019,0.029,0.075*7D
$GPGGA,102030.10,5100.7478059,N,01347.5133386,E,5,14,0.89,123.7511,M,43.9751,M,1.1,0562*71
$GNGST,102030.10,0.083,0.029,0.019,88.806,0.019,0.029,0.075*7F
$GPGGA,102030.20,5100.7478055,N,01347.5133372,E,5,14,0.89,123.7473,M,43.9751,M,1.2,0562*73
$GNGST,102030.20,0.083,0.029,0.019,88.807,0.019,0.029,0.075*7D
$GPGGA,102030.30,5100.7478065,N,01347.5133389,E,5,14,0.89,123.7392,M,43.9751,M,1.3,0562*7C
$GNGST,102030.30,0.083,0.029,0.019,88.809,0.019,0.029,0.076*71
$GPGGA,102030.40,5100.7478100,N,01347.5133404,E,5,14,0.89,123.7395,M,43.9751,M,1.4,0562*7B
$GNGST,102030.40,0.083,0.029,0.019,88.811,0.019,0.029,0.076*7F
$GPGGA,102030.50,5100.7478095,N,01347.5133396,E,5,14,0.89,123.7447,M,43.9751,M,1.5,0562*72
$GNGST,102030.50,0.084,0.029,0.019,88.812,0.019,0.029,0.076*7A
$GPGGA,102030.60,5100.7478079,N,01347.5133379,E,5,14,0.89,123.7386,M,43.9751,M,0.6,0562*7A
$GNGST,102030.60,0.081,0.028,0.019,87.739,0.019,0.028,0.074*77
$GPGGA,102030.70,5100.7478033,N,01347.5133313,E,5,14,0.89,123.7934,M,43.9751,M,0.7,0562*7B
$GNGST,102030.70,0.081,0.028,0.019,87.768,0.019,0.028,0.073*75
$GPGGA,102030.80,5100.7478037,N,01347.5133319,E,5,14,0.89,123.7898,M,43.9751,M,0.8,0562*72
$GNGST,102030.80,0.081,0.028,0.019,87.778,0.019,0.028,0.074*7C
$GPGGA,102030.90,5100.7478058,N,01347.5133316,E,5,14,0.89,123.7916,M,43.9751,M,0.9,0562*73
$GNGST,102030.90,0.081,0.028,0.019,87.788,0.019,0.028,0.074*72
$GPGGA,102031.00,5100.7478066,N,01347.5133277,E,5,14,0.89,123.7895,M,43.9751,M,1.0,0562*72
$GNGST,102031.00,0.082,0.028,0.019,87.798,0.019,0.028,0.074*78
$GPGGA,102031.10,5100.7478053,N,01347.5133284,E,5,14,0.89,123.7854,M,43.9751,M,1.1,0562*75
$GNGST,102031.10,0.082,0.028,0.019,87.808,0.019,0.028,0.074*7F
$GPGGA,102031.20,5100.7478054,N,01347.5133303,E,5,14,0.89,123.7882,M,43.9751,M,1.2,0562*77
$GNGST,102031.20,0.082,0.028,0.019,87.818,0.019,0.028,0.075*7C
$GPGGA,102031.30,5100.7478047,N,01347.5133257,E,5,14,0.89,123.8009,M,43.9751,M,1.3,0562*71
$GNGST,102031.30,0.082,0.028,0.019,87.827,0.019,0.028,0.075*71
$GPGGA,102031.40,5100.7478067,N,01347.5133309,E,5,14,0.89,123.7912,M,43.9751,M,1.4,0562*75
$GNGST,102031.40,0.083,0.029,0.019,87.837,0.019,0.029,0.075*76
$GPGGA,102031.50,5100.7478051,N,01347.5133299,E,5,14,0.89,123.7987,M,43.9751,M,1.5,0562*74
$GNGST,102031.50,0.083,0.029,0.020,87.846,0.020,0.029,0.075*71
$GPGGA,102031.60,5100.7478042,N,01347.5133411,E,5,15,0.89,123.8275,M,43.9751,M,0.6,0562*79
$GNGST,102031.60,0.079,0.028,0.020,78.999,0.021,0.027,0.072*7D
$GPGGA,102031.70,5100.7477907,N,01347.5133229,E,5,15,0.89,123.9006,M,43.9751,M,0.7,0562*74
$GNGST,102031.70,0.077,0.024,0.017,114.000,0.018,0.023,0.071*45
$GPGGA,102031.80,5100.7477906,N,01347.5133193,E,5,14,0.89,123.9064,M,43.9751,M,0.8,0562*72
$GNGST,102031.80,0.077,0.024,0.017,113.985,0.018,0.023,0.071*49
$GPGGA,102031.90,5100.7477932,N,01347.5133225,E,5,14,0.89,123.8971,M,43.9751,M,0.9,0562*77
$GNGST,102031.90,0.077,0.024,0.017,113.971,0.018,0.023,0.072*40
$GPGGA,102032.00,5100.7477944,N,01347.5133211,E,5,14,0.89,123.9065,M,43.9751,M,1.0,0562*7E
$GNGST,102032.00,0.078,0.024,0.017,113.956,0.018,0.023,0.072*40
$GPGGA,102032.10,5100.7477937,N,01347.5133211,E,5,14,0.89,123.9022,M,43.9751,M,1.1,0562*79
$GNGST,102032.10,0.078,0.024,0.017,113.942,0.018,0.023,0.072*44
$GPGGA,102032.20,5100.7477934,N,01347.5133206,E,5,14,0.89,123.9003,M,43.9751,M,1.2,0562*7F
$GNGST,102032.20,0.078,0.024,0.017,113.928,0.018,0.023,0.072*4B
$GPGGA,102032.30,5100.7477944,N,01347.5133180,E,5,14,0.89,123.9014,M,43.9751,M,1.3,0562*73
$GNGST,102032.30,0.078,0.024,0.017,113.915,0.018,0.023,0.073*45
$GPGGA,102032.40,5100.7477927,N,01347.5133153,E,5,14,0.89,123.9044,M,43.9751,M,1.4,0562*7D
$GNGST,102032.40,0.079,0.024,0.017,113.901,0.018,0.023,0.073*46
$GPGGA,102032.50,5100.7477926,N,01347.5133174,E,5,14,0.89,123.9096,M,43.9751,M,1.5,0562*76
$GNGST,102032.50,0.079,0.025,0.017,113.888,0.018,0.023,0.073*46
$GPGGA,102032.60,5100.7477907,N,01347.5133197,E,5,14,0.89,123.8998,M,43.9751,M,0.6,0562*7F
$GNGST,102032.60,0.076,0.024,0.015,113.108,0.017,0.023,0.071*45
$GPGGA,102032.70,5100.7477836,N,01347.5133003,E,5,14,0.89,123.9504,M,43.9751,M,0.7,0562*78
$GNGST,102032.70,0.076,0.024,0.015,113.021,0.016,0.023,0.070*4E
$GPGGA,102032.80,5100.7477853,N,01347.5133016,E,5,14,0.89,123.9551,M,43.9751,M,0.8,0562*7F
$GNGST,102032.80,0.076,0.024,0.015,113.015,0.017,0.023,0.070*47
$GPGGA,102032.90,5100.7477849,N,01347.5133022,E,5,14,0.89,123.9373,M,43.9751,M,0.9,0562*75
$GNGST,102032.90,0.076,0.024,0.015,113.009,0.017,0.023,0.071*4A
$GPGGA,102033.00,5100.7477859,N,01347.5133030,E,5,14,0.89,123.9456,M,43.9751,M,1.0,0562*77
$GNGST,102033.00,0.076,0.024,0.015,113.003,0.017,0.023,0.071*48
$GPGGA,102033.10,5100.7477862,N,01347.5133033,E,5,14,0.89,123.9568,M,43.9751,M,1.1,0562*70
$GNGST,102033.10,0.077,0.024,0.015,112.998,0.017,0.023,0.071*42
$GPGGA,102033.20,5100.7477850,N,01347.5133023,E,5,14,0.89,123.9593,M,43.9751,M,1.2,0562*74
$GNGST,102033.20,0.077,0.024,0.015,112.992,0.017,0.023,0.071*4B
$GPGGA,102033.30,5100.7477843,N,01347.5133054,E,5,14,0.89,123.9577,M,43.9751,M,1.3,0562*7C
$GNGST,102033.30,0.077,0.024,0.015,112.987,0.017,0.023,0.072*4D
$GPGGA,102033.40,5100.7477862,N,01347.5133059,E,5,14,0.89,123.9572,M,43.9751,M,1.4,0562*77
$GNGST,102033.40,0.077,0.024,0.015,112.981,0.017,0.023,0.072*4C
$GPGGA,102033.50,5100.7477872,N,01347.5133072,E,5,14,0.89,123.9545,M,43.9751,M,1.5,0562*7B
$GNGST,102033.50,0.078,0.024,0.015,112.976,0.017,0.023,0.072*4A
$GPGGA,102033.60,5100.7477873,N,01347.5133076,E,5,15,0.89,123.9470,M,43.9751,M,0.6,0562*79
$GNGST,102033.60,0.075,0.024,0.015,112.734,0.016,0.022,0.070*4E
$GPGGA,102033.70,5100.7477820,N,01347.5132949,E,5,15,0.89,123.9747,M,43.9751,M,0.7,0562*7C
$GNGST,102033.70,0.075,0.024,0.014,112.645,0.016,0.022,0.069*41
$GPGGA,102033.80,5100.7477809,N,01347.5132928,E,5,15,0.89,123.9808,M,43.9751,M,0.8,0562*74
$GNGST,102033.80,0.075,0.024,0.015,112.641,0.016,0.022,0.070*43
$GPGGA,102033.90,5100.7477807,N,01347.5132921,E,5,15,0.89,123.9932,M,43.9751,M,0.9,0562*7B
$GNGST,102033.90,0.075,0.024,0.015,112.638,0.016,0.023,0.070*4D
$GPGGA,102034.00,5100.7477788,N,01347.5132930,E,5,15,0.89,123.9784,M,43.9751,M,1.0,0562*76
$GNGST,102034.00,0.075,0.024,0.015,112.634,0.016,0.023,0.070*4F
$GPGGA,102034.10,5100.7477767,N,01347.5132874,E,5,15,0.89,123.9856,M,43.9751,M,1.1,0562*76
$GNGST,102034.10,0.076,0.024,0.015,112.630,0.016,0.023,0.070*49
$GPGGA,102034.20,5100.7477783,N,01347.5132927,E,5,14,0.89,123.9773,M,43.9751,M,1.2,0562*72
$GNGST,102034.20,0.076,0.024,0.015,112.627,0.016,0.023,0.071*4D
$GPGGA,102034.30,5100.7477766,N,01347.5132900,E,5,14,0.89,123.9844,M,43.9751,M,1.3,0562*77
$GNGST,102034.30,0.076,0.024,0.015,112.623,0.016,0.023,0.071*48
$GPGGA,102034.40,5100.7477776,N,01347.5132895,E,5,14,0.89,123.9821,M,43.9751,M,1.4,0562*78
$GNGST,102034.40,0.076,0.024,0.015,112.620,0.016,0.023,0.071*4C
$GPGGA,102034.50,5100.7477793,N,01347.5132903,E,5,14,0.89,123.9839,M,43.9751,M,1.5,0562*74
$GNGST,102034.50,0.077,0.024,0.015,112.616,0.016,0.023,0.071*49
$GPGGA,102034.60,5100.7477808,N,01347.5132915,E,5,14,0.89,123.9899,M,43.9751,M,0.6,0562*75
$GNGST,102034.60,0.074,0.023,0.014,112.649,0.016,0.022,0.069*4D
$GPGGA,102034.70,5100.7477810,N,01347.5132938,E,5,15,0.89,124.0101,M,43.9751,M,0.7,0562*74
$GNGST,102034.70,0.074,0.023,0.014,112.258,0.016,0.022,0.069*48
$GPGGA,102034.80,5100.7477801,N,01347.5132985,E,5,15,0.89,124.0024,M,43.9751,M,0.8,0562*74
$GNGST,102034.80,0.074,0.024,0.014,112.256,0.016,0.022,0.069*4E
$GPGGA,102034.90,5100.7477830,N,01347.5132991,E,5,15,0.89,124.0113,M,43.9751,M,0.9,0562*76
$GNGST,102034.90,0.074,0.024,0.014,112.255,0.016,0.023,0.069*4D
$GPGGA,102035.00,5100.7477822,N,01347.5132937,E,5,14,0.89,123.9996,M,43.9751,M,1.0,0562*73
$GNGST,102035.00,0.075,0.024,0.014,112.253,0.016,0.023,0.069*42
$GPGGA,102035.10,5100.7477841,N,01347.5132929,E,5,14,0.89,124.0009,M,43.9751,M,1.1,0562*78
$GNGST,102035.10,0.075,0.024,0.014,112.252,0.016,0.023,0.070*4A
$GPGGA,102035.20,5100.7477825,N,01347.5132937,E,5,14,0.89,123.9995,M,43.9751,M,1.2,0562*77
$GNGST,102035.20,0.075,0.024,0.014,112.250,0.016,0.023,0.070*4B
$GPGGA,102035.30,5100.7477816,N,01347.5132938,E,5,14,0.89,124.0031,M,43.9751,M,1.3,0562*71
$GNGST,102035.30,0.075,0.024,0.014,112.249,0.016,0.023,0.070*42
$GPGGA,102035.40,5100.7477808,N,01347.5132966,E,5,14,0.89,123.9973,M,43.9751,M,1.4,0562*74
$GNGST,102035.40,0.076,0.024,0.015,112.247,0.016,0.023,0.070*49
$GPGGA,102035.50,5100.7477784,N,01347.5132947,E,5,14,0.89,124.0084,M,43.9751,M,1.5,0562*73
$GNGST,102035.50,0.076,0.024,0.015,112.246,0.016,0.023,0.070*49
$GPGGA,102035.60,5100.7477788,N,01347.5132965,E,5,14,0.89,124.0083,M,43.9751,M,0.6,0562*79
$GNGST,102035.60,0.074,0.023,0.014,112.260,0.016,0.022,0.068*42
$GPGGA,102035.70,5100.7477716,N,01347.5132891,E,5,14,0.89,124.0176,M,43.9751,M,0.7,0562*7F
$GNGST,102035.70,0.073,0.023,0.014,112.491,0.015,0.022,0.068*4F
$GPGGA,102035.80,5100.7477724,N,01347.5132876,E,5,14,0.89,124.0151,M,43.9751,M,0.8,0562*72
$GNGST,102035.80,0.073,0.023,0.014,112.488,0.015,0.022,0.068*48
$GPGGA,102035.90,5100.7477713,N,01347.5132837,E,5,14,0.89,124.0115,M,43.9751,M,0.9,0562*73
$GNGST,102035.90,0.073,0.023,0.014,112.484,0.015,0.022,0.068*45
$GPGGA,102036.00,5100.7477728,N,01347.5132790,E,5,14,0.89,124.0337,M,43.9751,M,1.0,0562*79
$GNGST,102036.00,0.074,0.023,0.014,112.481,0.016,0.022,0.069*4F
$GPGGA,102036.10,5100.7477709,N,01347.5132762,E,5,14,0.89,124.0290,M,43.9751,M,1.1,0562*7B
$GNGST,102036.10,0.074,0.024,0.014,112.477,0.016,0.022,0.069*40
$GPGGA,102036.20,5100.7477719,N,01347.5132812,E,5,14,0.89,124.0261,M,43.9751,M,1.2,0562*7C
$GNGST,102036.20,0.074,0.024,0.014,112.474,0.016,0.022,0.069*40
$GPGGA,102036.30,5100.7477740,N,01347.5132839,E,5,14,0.89,124.0229,M,43.9751,M,1.3,0562*75
$GNGST,102036.30,0.074,0.024,0.014,112.471,0.016,0.023,0.069*45
$GPGGA,102036.40,5100.7477773,N,01347.5132816,E,5,14,0.89,124.0296,M,43.9751,M,1.4,0562*7C
$GNGST,102036.40,0.075,0.024,0.014,112.467,0.016,0.023,0.069*44
$GPGGA,102036.50,5100.7477765,N,01347.5132818,E,5,14,0.89,124.0211,M,43.9751,M,1.5,0562*7A
$GNGST,102036.50,0.075,0.024,0.014,112.464,0.016,0.023,0.070*4E
$GPGGA,102036.60,5100.7477766,N,01347.5132851,E,5,14,0.89,124.0178,M,43.9751,M,1.6,0562*78
$GNGST,102036.60,0.075,0.024,0.014,112.461,0.016,0.023,0.070*48
$GPGGA,102036.70,5100.7477770,N,01347.5132860,E,5,14,0.89,124.0201,M,43.9751,M,1.7,0562*70
$GNGST,102036.70,0.075,0.024,0.014,112.458,0.016,0.023,0.070*43
$GPGGA,102036.80,5100.7477750,N,01347.5132825,E,5,14,0.89,124.0280,M,43.9751,M,1.8,0562*7A
$GNGST,102036.80,0.076,0.024,0.014,112.454,0.016,0.023,0.070*43
$GPGGA,102036.90,5100.7477738,N,01347.5132824,E,5,14,0.89,124.0198,M,43.9751,M,1.9,0562*7F
$GNGST,102036.90,0.076,0.024,0.014,112.451,0.016,0.023,0.070*47
$GPGGA,102037.00,5100.7477733,N,01347.5132835,E,5,14,0.89,124.0121,M,43.9751,M,1.0,0562*77
$GNGST,102037.00,0.074,0.023,0.014,112.481,0.016,0.022,0.069*4E
$GPGGA,102037.10,5100.7477746,N,01347.5132981,E,5,14,0.88,123.9246,M,43.9751,M,1.1,0562*76
$GNGST,102037.10,0.076,0.027,0.017,89.884,0.017,0.027,0.069*74
$GPGGA,102037.20,5100.7477750,N,01347.5132990,E,5,14,0.88,123.9198,M,43.9751,M,1.2,0562*71
$GNGST,102037.20,0.076,0.027,0.017,89.885,0.017,0.027,0.069*76
$GPGGA,102037.30,5100.7477758,N,01347.5132986,E,5,14,0.88,123.9123,M,43.9751,M,1.3,0562*7E
$GNGST,102037.30,0.076,0.027,0.017,89.885,0.017,0.027,0.069*77
$GPGGA,102037.40,5100.7477758,N,01347.5132962,E,5,14,0.88,123.9213,M,43.9751,M,1.4,0562*74
$GNGST,102037.40,0.077,0.027,0.017,89.885,0.017,0.027,0.070*79
$GPGGA,102037.50,5100.7477756,N,01347.5132967,E,5,14,0.88,123.9173,M,43.9751,M,1.5,0562*7A
$GNGST,102037.50,0.077,0.027,0.017,89.886,0.017,0.027,0.070*7B
$GPGGA,102037.60,5100.7477757,N,01347.5133102,E,5,14,0.91,123.9440,M,43.9751,M,0.6,0562*7D
$GNGST,102037.60,0.075,0.026,0.017,90.161,0.017,0.026,0.068*7B
$GPGGA,102037.70,5100.7477631,N,01347.5132964,E,5,14,0.91,123.9868,M,43.9751,M,0.7,0562*73
$GNGST,102037.70,0.062,0.024,0.013,108.133,0.014,0.024,0.056*41
$GPGGA,102037.80,5100.7477601,N,01347.5132959,E,5,14,0.91,123.9868,M,43.9751,M,0.8,0562*7E
$GNGST,102037.80,0.063,0.024,0.013,108.133,0.014,0.024,0.056*4F
$GPGGA,102037.90,5100.7477590,N,01347.5132936,E,5,14,0.91,123.9902,M,43.9751,M,0.9,0562*71
$GNGST,102037.90,0.063,0.025,0.013,108.132,0.015,0.024,0.056*4F
$GPGGA,102038.00,5100.7477603,N,01347.5132937,E,5,14,0.91,123.9922,M,43.9751,M,1.0,0562*75
$GNGST,102038.00,0.063,0.025,0.013,108.132,0.015,0.024,0.057*48
$GPGGA,102038.10,5100.7477590,N,01347.5132941,E,5,14,0.91,124.0007,M,43.9751,M,1.1,0562*7D
$GNGST,102038.10,0.063,0.025,0.013,108.132,0.015,0.024,0.057*49
$GPGGA,102038.20,5100.7477596,N,01347.5132938,E,5,14,0.91,123.9971,M,43.9751,M,1.2,0562*73
$GNGST,102038.20,0.063,0.025,0.013,108.132,0.015,0.024,0.057*4A
$GPGGA,102038.30,5100.7477591,N,01347.5132948,E,5,14,0.91,123.9927,M,43.9751,M,1.3,0562*70
$GNGST,102038.30,0.064,0.025,0.013,108.132,0.015,0.024,0.057*4C
$GPGGA,102038.40,5100.7477594,N,01347.5132927,E,5,14,0.91,123.9989,M,43.9751,M,1.4,0562*78
$GNGST,102038.40,0.064,0.025,0.013,108.132,0.015,0.024,0.057*4B
$GPGGA,102038.50,5100.7477588,N,01347.5132943,E,5,14,0.91,124.0022,M,43.9751,M,1.5,0562*71
$GNGST,102038.50,0.064,0.025,0.013,108.131,0.015,0.024,0.057*49
$GPGGA,102038.60,5100.7477602,N,01347.5132933,E,5,14,0.91,123.9995,M,43.9751,M,0.6,0562*7D
$GNGST,102038.60,0.062,0.024,0.013,108.133,0.014,0.023,0.056*48
$GPGGA,102038.70,5100.7477552,N,01347.5132989,E,5,14,0.91,123.9840,M,43.9751,M,0.7,0562*73
$GNGST,102038.70,0.062,0.024,0.013,108.127,0.015,0.023,0.056*4D
$GPGGA,102038.80,5100.7477557,N,01347.5133025,E,5,14,0.91,123.9718,M,43.9751,M,0.8,0562*7A
$GNGST,102038.80,0.062,0.024,0.013,108.126,0.015,0.023,0.056*43
$GPGGA,102038.90,5100.7477514,N,01347.5133014,E,5,14,0.91,123.9812,M,43.9751,M,0.9,0562*7A
$GNGST,102038.90,0.062,0.024,0.013,108.126,0.015,0.024,0.056*45
$GPGGA,102039.00,5100.7477531,N,01347.5133062,E,5,14,0.91,123.9792,M,43.9751,M,1.0,0562*7B
$GNGST,102039.00,0.063,0.024,0.013,108.125,0.015,0.024,0.056*4F
$GPGGA,102039.10,5100.7477528,N,01347.5133058,E,5,14,0.91,123.9790,M,43.9751,M,1.1,0562*78
$GNGST,102039.10,0.063,0.025,0.013,108.125,0.015,0.024,0.056*4F
$GPGGA,102039.20,5100.7477523,N,01347.5133056,E,5,14,0.91,123.9869,M,43.9751,M,1.2,0562*74
$GNGST,102039.20,0.063,0.025,0.013,108.125,0.015,0.024,0.056*4C
$GPGGA,102039.30,5100.7477513,N,01347.5133041,E,5,14,0.91,123.9797,M,43.9751,M,1.3,0562*7F
$GNGST,102039.30,0.063,0.025,0.013,108.124,0.015,0.024,0.057*4D
$GPGGA,102039.40,5100.7477520,N,01347.5133045,E,5,14,0.91,123.9811,M,43.9751,M,1.4,0562*7A
$GNGST,102039.40,0.063,0.025,0.014,108.124,0.015,0.024,0.057*4D
$GPGGA,102039.50,5100.7477527,N,01347.5133077,E,5,14,0.91,123.9731,M,43.9751,M,1.5,0562*71
$GNGST,102039.50,0.064,0.025,0.014,108.123,0.015,0.024,0.057*4C
$GPGGA,102039.60,5100.7477522,N,01347.5133156,E,5,14,0.91,123.9623,M,43.9751,M,0.6,0562*75
$GNGST,102039.60,0.062,0.024,0.013,108.444,0.014,0.023,0.055*4F
$GPGGA,102039.70,5100.7477417,N,01347.5133126,E,5,14,0.91,123.9991,M,43.9751,M,0.7,0562*73
$GNGST,102039.70,0.061,0.024,0.013,108.359,0.014,0.023,0.055*46
$GPGGA,102039.80,5100.7477420,N,01347.5133122,E,5,14,0.91,124.0126,M,43.9751,M,0.8,0562*79
$GNGST,102039.80,0.062,0.024,0.013,108.357,0.014,0.023,0.055*44
$GPGGA,102039.90,5100.7477443,N,01347.5133129,E,5,14,0.91,124.0197,M,43.9751,M,0.9,0562*7D
$GNGST,102039.90,0.062,0.024,0.013,108.355,0.014,0.023,0.055*47
$GPGGA,102040.00,5100.7477463,N,01347.5133157,E,5,14,0.91,124.0102,M,43.9751,M,1.0,0562*75
$GNGST,102040.00,0.062,0.024,0.013,108.353,0.015,0.023,0.056*44
$GPGGA,102040.10,5100.7477475,N,01347.5133149,E,5,14,0.91,124.0121,M,43.9751,M,1.1,0562*7C
$GNGST,102040.10,0.062,0.024,0.013,108.351,0.015,0.023,0.056*47
$GPGGA,102040.20,5100.7477458,N,01347.5133138,E,5,14,0.91,124.0053,M,43.9751,M,1.2,0562*71
$GNGST,102040.20,0.062,0.024,0.013,108.349,0.015,0.024,0.056*4A
$GPGGA,102040.30,5100.7477478,N,01347.5133125,E,5,14,0.91,124.0071,M,43.9751,M,1.3,0562*7F
$GNGST,102040.30,0.063,0.025,0.013,108.346,0.015,0.024,0.056*44
$GPGGA,102040.40,5100.7477486,N,01347.5133111,E,5,14,0.91,123.9996,M,43.9751,M,1.4,0562*77
$GNGST,102040.40,0.063,0.025,0.013,108.344,0.015,0.024,0.056*41
$GPGGA,102040.50,5100.7477469,N,01347.5133079,E,5,14,0.91,124.0031,M,43.9751,M,1.5,0562*73
$GNGST,102040.50,0.063,0.025,0.013,108.342,0.015,0.024,0.056*46
$GPGGA,102040.60,5100.7477464,N,01347.5133093,E,5,14,0.91,123.9989,M,43.9751,M,1.6,0562*7E
$GNGST,102040.60,0.063,0.025,0.013,108.340,0.015,0.024,0.057*46
$GPGGA,102040.70,5100.7477448,N,01347.5133115,E,5,14,0.91,124.0027,M,43.9751,M,1.7,0562*7C
$GNGST,102040.70,0.063,0.025,0.013,108.338,0.015,0.024,0.057*48
$GPGGA,102040.80,5100.7477432,N,01347.5133115,E,5,14,0.91,124.0022,M,43.9751,M,1.8,0562*74
$GNGST,102040.80,0.064,0.025,0.013,108.336,0.015,0.024,0.057*4E
$GPGGA,102040.90,5100.7477456,N,01347.5133139,E,5,14,0.91,124.0109,M,43.9751,M,1.9,0562*70
$GNGST,102040.90,0.064,0.025,0.013,108.334,0.015,0.024,0.057*4D
$GPGGA,102041.00,5100.7477494,N,01347.5133168,E,5,14,0.91,124.0113,M,43.9751,M,1.0,0562*70
$GNGST,102041.00,0.062,0.024,0.013,108.353,0.015,0.023,0.056*45
$GPGGA,102041.10,5100.7477425,N,01347.5133011,E,5,15,0.89,124.0946,M,43.9751,M,1.1,0562*75
$GNGST,102041.10,0.070,0.023,0.013,111.560,0.015,0.022,0.065*4F
$GPGGA,102041.20,5100.7477386,N,01347.5132983,E,5,15,0.89,124.0866,M,43.9751,M,1.2,0562*7B
$GNGST,102041.20,0.071,0.023,0.013,111.561,0.015,0.022,0.066*4F
$GPGGA,102041.30,5100.7477385,N,01347.5132971,E,5,14,0.89,124.0927,M,43.9751,M,1.3,0562*70
$GNGST,102041.30,0.071,0.023,0.013,111.561,0.015,0.022,0.066*4E
$GPGGA,102041.40,5100.7477382,N,01347.5132988,E,5,14,0.89,124.0916,M,43.9751,M,1.4,0562*73
$GNGST,102041.40,0.071,0.023,0.013,111.562,0.015,0.022,0.066*4A
$GPGGA,102041.50,5100.7477381,N,01347.5132963,E,5,14,0.89,124.0848,M,43.9751,M,1.5,0562*7F
$GNGST,102041.50,0.071,0.023,0.013,111.562,0.015,0.022,0.066*4B
$GPGGA,102041.60,5100.7477382,N,01347.5132983,E,5,15,0.89,124.0952,M,43.9751,M,0.6,0562*78
$GNGST,102041.60,0.069,0.023,0.013,111.010,0.015,0.022,0.064*43
$GPGGA,102041.70,5100.7477299,N,01347.5132885,E,5,15,0.89,124.1284,M,43.9751,M,0.7,0562*75
$GNGST,102041.70,0.069,0.023,0.013,110.958,0.014,0.022,0.064*47
$GPGGA,102041.80,5100.7477255,N,01347.5132883,E,5,15,0.89,124.1199,M,43.9751,M,0.8,0562*7C
$GNGST,102041.80,0.069,0.023,0.013,110.961,0.015,0.022,0.064*43
$GPGGA,102041.90,5100.7477269,N,01347.5132918,E,5,15,0.89,124.1095,M,43.9751,M,0.9,0562*7D
$GNGST,102041.90,0.070,0.023,0.013,110.965,0.015,0.022,0.064*4E
$GPGGA,102042.00,5100.7477265,N,01347.5132877,E,5,15,0.89,124.1264,M,43.9751,M,1.0,0562*77
$GNGST,102042.00,0.070,0.023,0.013,110.968,0.015,0.022,0.065*48
$GPGGA,102042.10,5100.7477256,N,01347.5132865,E,5,15,0.89,124.1216,M,43.9751,M,1.1,0562*71
$GNGST,102042.10,0.070,0.023,0.013,110.972,0.015,0.022,0.065*42
$GPGGA,102042.20,5100.7477252,N,01347.5132850,E,5,15,0.89,124.1232,M,43.9751,M,1.2,0562*75
$GNGST,102042.20,0.070,0.023,0.013,110.975,0.015,0.022,0.065*46
$GPGGA,102042.30,5100.7477246,N,01347.5132849,E,5,15,0.89,124.1079,M,43.9751,M,1.3,0562*75
$GNGST,102042.30,0.070,0.023,0.013,110.979,0.015,0.022,0.065*4B
$GPGGA,102042.40,5100.7477232,N,01347.5132824,E,5,15,0.89,124.1193,M,43.9751,M,1.4,0562*78
$GNGST,102042.40,0.071,0.024,0.013,110.982,0.015,0.022,0.065*4E
$GPGGA,102042.50,5100.7477262,N,01347.5132858,E,5,15,0.89,124.1204,M,43.9751,M,1.5,0562*7B
$GNGST,102042.50,0.071,0.024,0.013,110.985,0.015,0.023,0.066*4A
$GPGGA,102042.60,5100.7477272,N,01347.5132842,E,5,15,0.89,124.1115,M,43.9751,M,0.6,0562*73
$GNGST,102042.60,0.069,0.023,0.013,110.954,0.014,0.022,0.064*49
$GPGGA,102042.70,5100.7477285,N,01347.5132871,E,5,15,0.89,124.1172,M,43.9751,M,0.7,0562*7A
$GNGST,102042.70,0.068,0.022,0.012,111.525,0.014,0.021,0.063*46
$GPGGA,102042.80,5100.7477303,N,01347.5132886,E,5,15,0.89,124.1156,M,43.9751,M,0.8,0562*7B
$GNGST,102042.80,0.068,0.022,0.012,111.525,0.014,0.021,0.063*49
$GPGGA,102042.90,5100.7477281,N,01347.5132874,E,5,15,0.89,124.1011,M,43.9751,M,0.9,0562*7F
$GNGST,102042.90,0.068,0.022,0.012,111.525,0.014,0.021,0.064*4F
$GPGGA,102043.00,5100.7477304,N,01347.5132888,E,5,15,0.89,124.0960,M,43.9751,M,1.0,0562*7E
$GNGST,102043.00,0.069,0.022,0.012,111.525,0.014,0.021,0.064*46
$GPGGA,102043.10,5100.7477316,N,01347.5132854,E,5,15,0.89,124.1016,M,43.9751,M,1.1,0562*75
$GNGST,102043.10,0.069,0.022,0.012,111.525,0.014,0.021,0.064*47
$GPGGA,102043.20,5100.7477303,N,01347.5132837,E,5,15,0.89,124.1075,M,43.9751,M,1.2,0562*71
$GNGST,102043.20,0.069,0.022,0.012,111.525,0.014,0.021,0.064*44
$GPGGA,102043.30,5100.7477300,N,01347.5132860,E,5,15,0.89,124.0967,M,43.9751,M,1.3,0562*7B
$GNGST,102043.30,0.069,0.022,0.012,111.525,0.014,0.021,0.064*45
$GPGGA,102043.40,5100.7477280,N,01347.5132881,E,5,15,0.89,124.0947,M,43.9751,M,1.4,0562*7F
$GNGST,102043.40,0.069,0.022,0.012,111.525,0.014,0.021,0.064*42
$GPGGA,102043.50,5100.7477289,N,01347.5132892,E,5,15,0.89,124.0952,M,43.9751,M,1.5,0562*70
$GNGST,102043.50,0.070,0.022,0.012,111.525,0.014,0.021,0.065*4A
$GPGGA,102043.60,5100.7477316,N,01347.5132877,E,5,15,0.89,124.1070,M,43.9751,M,1.6,0562*74
$GNGST,102043.60,0.070,0.023,0.012,111.525,0.014,0.021,0.065*48
$GPGGA,102043.70,5100.7477310,N,01347.5132896,E,5,15,0.89,124.1038,M,43.9751,M,1.7,0562*71
$GNGST,102043.70,0.070,0.023,0.012,111.524,0.014,0.022,0.065*4B
$GPGGA,102043.80,5100.7477311,N,01347.5132871,E,5,15,0.89,124.1160,M,43.9751,M,1.8,0562*75
$GNGST,102043.80,0.070,0.023,0.012,111.524,0.014,0.022,0.065*44
$GPGGA,102043.90,5100.7477303,N,01347.5132882,E,5,15,0.89,124.1188,M,43.9751,M,1.9,0562*7C
$GNGST,102043.90,0.070,0.023,0.012,111.524,0.014,0.022,0.065*45
$GPGGA,102044.00,5100.7477296,N,01347.5132841,E,5,15,0.89,124.1248,M,43.9751,M,2.0,0562*75
$GNGST,102044.00,0.071,0.023,0.012,111.524,0.014,0.022,0.066*49
$GPGGA,102044.10,5100.7477314,N,01347.5132863,E,5,15,0.89,124.1119,M,43.9751,M,2.1,0562*79
$GNGST,102044.10,0.071,0.023,0.013,111.524,0.014,0.022,0.066*49
$GPGGA,102044.20,5100.7477297,N,01347.5132825,E,5,15,0.89,124.1144,M,43.9751,M,2.2,0562*79
$GNGST,102044.20,0.071,0.023,0.013,111.524,0.014,0.022,0.066*4A
$GPGGA,102044.30,5100.7477292,N,01347.5132838,E,5,15,0.89,124.1142,M,43.9751,M,2.3,0562*76
$GNGST,102044.30,0.071,0.023,0.013,111.524,0.014,0.022,0.066*4B
$GPGGA,102044.40,5100.7477282,N,01347.5132853,E,5,15,0.89,124.1107,M,43.9751,M,2.4,0562*7B
$GNGST,102044.40,0.071,0.023,0.013,111.524,0.014,0.022,0.066*4C
$GPGGA,102044.50,5100.7477287,N,01347.5132844,E,5,15,0.89,124.1119,M,43.9751,M,2.5,0562*77
$GNGST,102044.50,0.072,0.023,0.013,111.524,0.015,0.022,0.067*4E
$GPGGA,102044.60,5100.7477350,N,01347.5132805,E,5,15,0.89,124.1228,M,43.9751,M,1.6,0562*7B
$GNGST,102044.60,0.070,0.022,0.014,112.293,0.015,0.021,0.064*41
$GPGGA,102044.70,5100.7477331,N,01347.5132787,E,5,15,0.89,124.1248,M,43.9751,M,1.7,0562*7F
$GNGST,102044.70,0.070,0.022,0.014,112.287,0.016,0.021,0.065*47
$GPGGA,102044.80,5100.7477365,N,01347.5132784,E,5,15,0.89,124.1312,M,43.9751,M,0.8,0562*72
$GNGST,102044.80,0.068,0.022,0.014,112.343,0.015,0.021,0.063*4D
$GPGGA,102044.90,5100.7477387,N,01347.5132827,E,5,15,0.89,124.0960,M,43.9751,M,0.9,0562*76
$GNGST,102044.90,0.067,0.022,0.012,111.871,0.014,0.021,0.062*4C
$GPGGA,102045.00,5100.7477371,N,01347.5132801,E,5,15,0.89,124.1020,M,43.9751,M,1.0,0562*77
$GNGST,102045.00,0.067,0.022,0.012,111.868,0.014,0.021,0.062*4C
$GPGGA,102045.10,5100.7477356,N,01347.5132796,E,5,15,0.89,124.1000,M,43.9751,M,1.1,0562*71
$GNGST,102045.10,0.068,0.022,0.012,111.865,0.014,0.021,0.063*4E
$GPGGA,102045.20,5100.7477348,N,01347.5132800,E,5,15,0.89,124.1022,M,43.9751,M,1.2,0562*7E
$GNGST,102045.20,0.068,0.022,0.012,111.862,0.014,0.021,0.063*4A
$GPGGA,102045.30,5100.7477327,N,01347.5132779,E,5,15,0.89,124.1064,M,43.9751,M,1.3,0562*74
$GNGST,102045.30,0.068,0.022,0.012,111.859,0.014,0.021,0.063*43
$GPGGA,102045.40,5100.7477351,N,01347.5132770,E,5,15,0.89,124.1120,M,43.9751,M,1.4,0562*7D
$GNGST,102045.40,0.068,0.022,0.012,111.856,0.014,0.021,0.063*4B
$GPGGA,102045.50,5100.7477356,N,01347.5132754,E,5,15,0.89,124.1143,M,43.9751,M,1.5,0562*79
$GNGST,102045.50,0.068,0.022,0.013,111.854,0.014,0.021,0.063*49
$GPGGA,102045.60,5100.7477331,N,01347.5132776,E,5,15,0.89,124.0949,M,43.9751,M,0.6,0562*7A
$GNGST,102045.60,0.066,0.021,0.012,111.881,0.014,0.020,0.062*4E
$GPGGA,102045.70,5100.7477344,N,01347.5132657,E,5,15,0.89,124.0861,M,43.9751,M,0.7,0562*71
$GNGST,102045.70,0.066,0.021,0.012,111.976,0.014,0.020,0.061*45
$GPGGA,102045.80,5100.7477355,N,01347.5132630,E,5,15,0.89,124.0974,M,43.9751,M,0.8,0562*75
$GNGST,102045.80,0.066,0.022,0.012,111.972,0.014,0.021,0.062*4F
$GPGGA,102045.90,5100.7477363,N,01347.5132665,E,5,15,0.89,124.0832,M,43.9751,M,0.9,0562*73
$GNGST,102045.90,0.067,0.022,0.012,111.967,0.014,0.021,0.062*4B
$GPGGA,102046.00,5100.7477360,N,01347.5132655,E,5,15,0.89,124.0896,M,43.9751,M,1.0,0562*7F
$GNGST,102046.00,0.067,0.022,0.013,111.963,0.014,0.021,0.062*44
$GPGGA,102046.10,5100.7477363,N,01347.5132646,E,5,15,0.89,124.0976,M,43.9751,M,1.1,0562*71
$GNGST,102046.10,0.067,0.022,0.013,111.959,0.014,0.021,0.062*4C
$GPGGA,102046.20,5100.7477356,N,01347.5132648,E,5,15,0.89,124.0999,M,43.9751,M,1.2,0562*78
$GNGST,102046.20,0.067,0.022,0.013,111.955,0.014,0.021,0.062*43
$GPGGA,102046.30,5100.7477353,N,01347.5132640,E,5,15,0.89,124.1038,M,43.9751,M,1.3,0562*76
$GNGST,102046.30,0.067,0.022,0.013,111.951,0.014,0.021,0.062*46
$GPGGA,102046.40,5100.7477350,N,01347.5132660,E,5,15,0.89,124.1170,M,43.9751,M,1.4,0562*7A
$GNGST,102046.40,0.068,0.022,0.013,111.948,0.014,0.021,0.063*47
$GPGGA,102046.50,5100.7477363,N,01347.5132669,E,5,15,0.89,124.1140,M,43.9751,M,1.5,0562*70
$GNGST,102046.50,0.068,0.022,0.013,111.944,0.014,0.021,0.063*4A
$GPGGA,102046.60,5100.7477352,N,01347.5132637,E,5,15,0.89,124.1213,M,43.9751,M,0.6,0562*7D
$GNGST,102046.60,0.066,0.021,0.012,111.980,0.014,0.020,0.061*4E
$GPGGA,102046.70,5100.7477409,N,01347.5132803,E,5,15,0.89,124.0737,M,43.9751,M,0.7,0562*7F
$GNGST,102046.70,0.066,0.022,0.012,110.579,0.014,0.021,0.061*46
$GPGGA,102046.80,5100.7477418,N,01347.5132794,E,5,15,0.89,124.0747,M,43.9751,M,0.8,0562*79
$GNGST,102046.80,0.066,0.022,0.012,110.583,0.014,0.021,0.061*4C
$GPGGA,102046.90,5100.7477383,N,01347.5132812,E,5,15,0.89,124.0777,M,43.9751,M,0.9,0562*7E
$GNGST,102046.90,0.066,0.022,0.012,110.587,0.014,0.021,0.061*49
$GPGGA,102047.00,5100.7477403,N,01347.5132818,E,5,15,0.89,124.0632,M,43.9751,M,1.0,0562*7B
$GNGST,102047.00,0.066,0.022,0.012,110.591,0.014,0.021,0.061*46
$GPGGA,102047.10,5100.7477403,N,01347.5132819,E,5,15,0.89,124.0678,M,43.9751,M,1.1,0562*74
$GNGST,102047.10,0.066,0.022,0.012,110.596,0.014,0.021,0.061*40
$GPGGA,102047.20,5100.7477436,N,01347.5132843,E,5,15,0.89,124.0615,M,43.9751,M,1.2,0562*76
$GNGST,102047.20,0.067,0.022,0.012,110.600,0.014,0.021,0.062*4D
$GPGGA,102047.30,5100.7477436,N,01347.5132849,E,5,15,0.89,124.0637,M,43.9751,M,1.3,0562*7C
$GNGST,102047.30,0.067,0.022,0.012,110.604,0.014,0.021,0.062*48
$GPGGA,102047.40,5100.7477468,N,01347.5132847,E,5,15,0.89,124.0669,M,43.9751,M,1.4,0562*72
$GNGST,102047.40,0.067,0.022,0.012,110.608,0.014,0.021,0.062*43
$GPGGA,102047.50,5100.7477436,N,01347.5132827,E,5,15,0.89,124.0643,M,43.9751,M,1.5,0562*77
$GNGST,102047.50,0.067,0.022,0.012,110.612,0.014,0.021,0.062*49
$GPGGA,102047.60,5100.7477416,N,01347.5132822,E,5,15,0.89,124.0610,M,43.9751,M,1.6,0562*76
$GNGST,102047.60,0.067,0.022,0.012,110.616,0.014,0.021,0.062*4E
$GPGGA,102047.70,5100.7477429,N,01347.5132804,E,5,15,0.89,124.0583,M,43.9751,M,1.7,0562*77
$GNGST,102047.70,0.068,0.022,0.012,110.620,0.014,0.021,0.063*44
$GPGGA,102047.80,5100.7477426,N,01347.5132857,E,5,15,0.89,124.0372,M,43.9751,M,1.8,0562*76
$GNGST,102047.80,0.068,0.023,0.012,110.624,0.014,0.022,0.063*4D
$GPGGA,102047.90,5100.7477421,N,01347.5132818,E,5,15,0.89,124.0511,M,43.9751,M,1.9,0562*79
$GNGST,102047.90,0.068,0.023,0.012,110.627,0.014,0.022,0.063*4F
$GPGGA,102048.00,5100.7477440,N,01347.5132811,E,5,15,0.89,124.0543,M,43.9751,M,1.0,0562*7F
$GNGST,102048.00,0.066,0.022,0.012,110.591,0.014,0.021,0.061*49
$GPGGA,102048.10,5100.7477483,N,01347.5132900,E,5,15,0.89,124.0169,M,43.9751,M,1.1,0562*7D
$GNGST,102048.10,0.066,0.021,0.012,112.358,0.014,0.020,0.061*4B
$GPGGA,102048.20,5100.7477515,N,01347.5132912,E,5,15,0.89,124.0301,M,43.9751,M,1.2,0562*7C
$GNGST,102048.20,0.066,0.021,0.012,112.351,0.014,0.020,0.061*41
$GPGGA,102048.30,5100.7477498,N,01347.5132907,E,5,15,0.89,124.0303,M,43.9751,M,1.3,0562*7E
$GNGST,102048.30,0.066,0.021,0.012,112.344,0.014,0.020,0.061*44
$GPGGA,102048.40,5100.7477502,N,01347.5132916,E,5,15,0.89,124.0265,M,43.9751,M,1.4,0562*7D
$GNGST,102048.40,0.066,0.022,0.012,112.337,0.014,0.020,0.061*44
$GPGGA,102048.50,5100.7477499,N,01347.5132873,E,5,15,0.89,124.0342,M,43.9751,M,1.5,0562*78
$GNGST,102048.50,0.066,0.022,0.012,112.331,0.014,0.021,0.062*41
$GPGGA,102048.60,5100.7477496,N,01347.5132891,E,5,15,0.89,124.0186,M,43.9751,M,0.6,0562*70
$GNGST,102048.60,0.064,0.021,0.012,111.543,0.013,0.020,0.060*47
$GPGGA,102048.70,5100.7477544,N,01347.5132919,E,5,15,0.89,123.9925,M,43.9751,M,0.7,0562*70
$GNGST,102048.70,0.064,0.021,0.012,111.489,0.013,0.020,0.059*4B
$GPGGA,102048.80,5100.7477558,N,01347.5132911,E,5,15,0.89,123.9856,M,43.9751,M,0.8,0562*70
$GNGST,102048.80,0.064,0.021,0.012,111.487,0.013,0.020,0.060*40
$GPGGA,102048.90,5100.7477562,N,01347.5132977,E,5,15,0.89,123.9735,M,43.9751,M,0.9,0562*73
$GNGST,102048.90,0.065,0.021,0.012,111.486,0.013,0.020,0.060*41
$GPGGA,102049.00,5100.7477582,N,01347.5132934,E,5,15,0.89,123.9884,M,43.9751,M,1.0,0562*7F
$GNGST,102049.00,0.065,0.021,0.012,111.484,0.014,0.020,0.060*4C
$GPGGA,102049.10,5100.7477573,N,01347.5132981,E,5,15,0.89,123.9714,M,43.9751,M,1.1,0562*79
$GNGST,102049.10,0.065,0.021,0.012,111.482,0.014,0.020,0.060*4B
$GPGGA,102049.20,5100.7477552,N,01347.5133013,E,5,15,0.89,123.9687,M,43.9751,M,1.2,0562*72
$GNGST,102049.20,0.065,0.021,0.012,111.480,0.014,0.020,0.060*4A
$GPGGA,102049.30,5100.7477563,N,01347.5133037,E,5,15,0.89,123.9631,M,43.9751,M,1.3,0562*7B
$GNGST,102049.30,0.065,0.021,0.012,111.479,0.014,0.020,0.061*4C
$GPGGA,102049.40,5100.7477544,N,01347.5132984,E,5,15,0.89,123.9809,M,43.9751,M,1.4,0562*7B
$GNGST,102049.40,0.066,0.021,0.012,111.477,0.014,0.020,0.061*46
$GPGGA,102049.50,5100.7477561,N,01347.5132996,E,5,15,0.89,123.9926,M,43.9751,M,1.5,0562*73
$GNGST,102049.50,0.066,0.022,0.012,111.475,0.014,0.021,0.061*47
$GPGGA,102049.60,5100.7477544,N,01347.5133010,E,5,15,0.89,123.9841,M,43.9751,M,0.6,0562*73
$GNGST,102049.60,0.064,0.021,0.012,112.248,0.014,0.020,0.059*44
$GPGGA,102049.70,5100.7477539,N,01347.5132976,E,5,15,0.89,123.9579,M,43.9751,M,0.7,0562*77
$GNGST,102049.70,0.064,0.021,0.012,112.195,0.014,0.020,0.059*46
$GPGGA,102049.80,5100.7477554,N,01347.5132998,E,5,15,0.89,123.9645,M,43.9751,M,0.8,0562*70
$GNGST,102049.80,0.064,0.021,0.012,112.188,0.014,0.020,0.059*45
$GPGGA,102049.90,5100.7477539,N,01347.5132995,E,5,14,0.89,123.9571,M,43.9751,M,0.9,0562*73
$GNGST,102049.90,0.064,0.021,0.012,112.181,0.014,0.020,0.059*4D
$GPGGA,102050.00,5100.7477532,N,01347.5132995,E,5,14,0.89,123.9515,M,43.9751,M,1.0,0562*73
$GNGST,102050.00,0.065,0.021,0.013,112.174,0.014,0.020,0.060*4C
$GPGGA,102050.10,5100.7477531,N,01347.5133020,E,5,14,0.89,123.9528,M,43.9751,M,1.1,0562*78
$GNGST,102050.10,0.065,0.021,0.013,112.168,0.014,0.020,0.060*40
$GPGGA,102050.20,5100.7477554,N,01347.5133058,E,5,14,0.89,123.9395,M,43.9751,M,1.2,0562*74
$GNGST,102050.20,0.065,0.021,0.013,112.161,0.014,0.020,0.060*4A
$GPGGA,102050.30,5100.7477557,N,01347.5133058,E,5,14,0.89,123.9351,M,43.9751,M,1.3,0562*7F
$GNGST,102050.30,0.065,0.022,0.013,112.155,0.014,0.021,0.060*4E
$GPGGA,102050.40,5100.7477545,N,01347.5133025,E,5,14,0.89,123.9350,M,43.9751,M,1.4,0562*77
$GNGST,102050.40,0.065,0.022,0.013,112.149,0.014,0.021,0.060*44
$GPGGA,102050.50,5100.7477543,N,01347.5133053,E,5,14,0.89,123.9220,M,43.9751,M,1.5,0562*76
$GNGST,102050.50,0.066,0.022,0.013,112.142,0.014,0.021,0.061*4C
$GPGGA,102050.60,5100.7477544,N,01347.5133028,E,5,15,0.89,123.9163,M,43.9751,M,0.6,0562*79
$GNGST,102050.60,0.063,0.021,0.012,112.056,0.013,0.020,0.059*41
$GPGGA,102050.70,5100.7477561,N,01347.5133077,E,5,15,0.89,123.8580,M,43.9751,M,0.7,0562*7C
$GNGST,102050.70,0.063,0.021,0.012,112.004,0.013,0.020,0.058*46
$GPGGA,102050.80,5100.7477555,N,01347.5133095,E,5,15,0.89,123.8526,M,43.9751,M,0.8,0562*7B
$GNGST,102050.80,0.063,0.021,0.012,111.999,0.013,0.020,0.059*46
$GPGGA,102050.90,5100.7477510,N,01347.5133125,E,5,15,0.89,123.8466,M,43.9751,M,0.9,0562*75
$GNGST,102050.90,0.063,0.021,0.012,111.993,0.013,0.020,0.059*4D
$GPGGA,102051.00,5100.7477539,N,01347.5133118,E,5,15,0.89,123.8537,M,43.9751,M,1.0,0562*75
$GNGST,102051.00,0.064,0.021,0.012,111.987,0.013,0.020,0.059*47
$GPGGA,102051.10,5100.7477544,N,01347.5133133,E,5,15,0.89,123.8490,M,43.9751,M,1.1,0562*7A
$GNGST,102051.10,0.064,0.021,0.012,111.982,0.013,0.020,0.059*43
$GPGGA,102051.20,5100.7477540,N,01347.5133045,E,5,15,0.89,123.8643,M,43.9751,M,1.2,0562*72
$GNGST,102051.20,0.064,0.021,0.012,111.976,0.013,0.020,0.059*4B
$GPGGA,102051.30,5100.7477536,N,01347.5133012,E,5,15,0.89,123.8628,M,43.9751,M,1.3,0562*7C
$GNGST,102051.30,0.064,0.021,0.012,111.971,0.013,0.020,0.059*4D
$GPGGA,102051.40,5100.7477533,N,01347.5133021,E,5,15,0.89,123.8563,M,43.9751,M,1.4,0562*75
$GNGST,102051.40,0.064,0.021,0.012,111.965,0.013,0.020,0.060*45
$GPGGA,102051.50,5100.7477532,N,01347.5133020,E,5,15,0.89,123.8588,M,43.9751,M,1.5,0562*70
$GNGST,102051.50,0.065,0.021,0.012,111.960,0.014,0.020,0.060*47
$GPGGA,102051.60,5100.7477516,N,01347.5133028,E,5,15,0.89,123.8379,M,43.9751,M,0.6,0562*77
$GNGST,102051.60,0.063,0.020,0.012,111.332,0.013,0.020,0.058*42
$GPGGA,102051.70,5100.7477520,N,01347.5132924,E,5,15,0.89,123.8250,M,43.9751,M,0.7,0562*7C
$GNGST,102051.70,0.062,0.020,0.012,111.280,0.013,0.020,0.058*4A
$GPGGA,102051.80,5100.7477541,N,01347.5132947,E,5,15,0.89,123.8207,M,43.9751,M,0.8,0562*7C
$GNGST,102051.80,0.063,0.021,0.012,111.279,0.013,0.020,0.058*43
$GPGGA,102051.90,5100.7477535,N,01347.5132943,E,5,15,0.89,123.8247,M,43.9751,M,0.9,0562*7F
$GNGST,102051.90,0.063,0.021,0.012,111.277,0.013,0.020,0.058*4C
$GPGGA,102052.00,5100.7477558,N,01347.5132975,E,5,15,0.89,123.8264,M,43.9751,M,1.0,0562*72
$GNGST,102052.00,0.063,0.021,0.012,111.276,0.013,0.020,0.058*47
$GPGGA,102052.10,5100.7477557,N,01347.5133018,E,5,15,0.89,123.8220,M,43.9751,M,1.1,0562*7E
$GNGST,102052.10,0.063,0.021,0.012,111.275,0.013,0.020,0.058*45
$GPGGA,102052.20,5100.7477569,N,01347.5132974,E,5,15,0.89,123.8289,M,43.9751,M,1.2,0562*72
$GNGST,102052.20,0.063,0.021,0.012,111.273,0.013,0.020,0.059*41
$GPGGA,102052.30,5100.7477550,N,01347.5132992,E,5,15,0.89,123.8161,M,43.9751,M,1.3,0562*75
$GNGST,102052.30,0.064,0.021,0.012,111.272,0.014,0.020,0.059*41
$GPGGA,102052.40,5100.7477535,N,01347.5132966,E,5,15,0.89,123.8204,M,43.9751,M,1.4,0562*7D
$GNGST,102052.40,0.064,0.021,0.012,111.271,0.014,0.020,0.059*45
$GPGGA,102052.50,5100.7477523,N,01347.5132961,E,5,15,0.89,123.8344,M,43.9751,M,1.5,0562*78
$GNGST,102052.50,0.064,0.021,0.012,111.269,0.014,0.020,0.059*4D
