$GPGGA,080906.40,5100.7535756,N,01347.4881943,E,5,15,0.80,120.3053,M,43.9749,M,1.4,0417*72
$GNGST,080906.40,0.786,0.141,0.022,159.752,0.133,0.053,0.772*4F
$GPGGA,080906.50,5100.7535778,N,01347.4881955,E,5,15,0.80,120.3183,M,43.9749,M,1.5,0417*75
$GNGST,080906.50,0.788,0.142,0.022,159.752,0.133,0.053,0.775*44
$GPGGA,080906.60,5100.7535781,N,01347.4881950,E,5,15,0.80,120.3022,M,43.9749,M,0.6,0417*7D
$GNGST,080906.60,0.766,0.138,0.021,159.752,0.130,0.052,0.753*4F
$GPGGA,080906.70,5100.7536147,N,01347.4881756,E,5,15,0.80,119.9284,M,43.9749,M,0.7,0417*74
$GNGST,080906.70,0.765,0.138,0.021,159.810,0.129,0.051,0.753*4F
$GPGGA,080906.80,5100.7535935,N,01347.4881889,E,5,15,0.80,120.2211,M,43.9749,M,0.8,0417*7A
$GNGST,080906.80,0.763,0.137,0.021,159.761,0.129,0.051,0.751*42
$GPGGA,080906.90,5100.7535939,N,01347.4881871,E,5,15,0.80,120.2124,M,43.9749,M,0.9,0417*74
$GNGST,080906.90,0.766,0.138,0.021,159.761,0.129,0.051,0.753*4B
$GPGGA,080907.00,5100.7535944,N,01347.4881856,E,5,15,0.80,120.2028,M,43.9749,M,1.0,0417*76
$GNGST,080907.00,0.768,0.138,0.021,159.761,0.130,0.052,0.755*40
$GPGGA,080907.10,5100.7535939,N,01347.4881866,E,5,15,0.80,120.2140,M,43.9749,M,1.1,0417*70
$GNGST,080907.10,0.771,0.139,0.021,159.761,0.130,0.052,0.758*45
$GPGGA,080907.20,5100.7535946,N,01347.4881872,E,5,15,0.80,120.2164,M,43.9749,M,1.2,0417*7B
$GNGST,080907.20,0.773,0.139,0.021,159.761,0.131,0.052,0.760*4E
$GPGGA,080907.30,5100.7535944,N,01347.4881874,E,5,15,0.80,120.2140,M,43.9749,M,1.3,0417*79
$GNGST,080907.30,0.775,0.139,0.021,159.761,0.131,0.052,0.762*4B
$GPGGA,080907.40,5100.7535954,N,01347.4881866,E,5,15,0.80,120.2163,M,43.9749,M,1.4,0417*7A
$GNGST,080907.40,0.778,0.140,0.021,159.761,0.131,0.052,0.765*48
$GPGGA,080907.50,5100.7535948,N,01347.4881876,E,5,15,0.80,120.2189,M,43.9749,M,1.5,0417*72
$GNGST,080907.50,0.780,0.140,0.021,159.761,0.132,0.052,0.767*4F
$GPGGA,080907.60,5100.7535937,N,01347.4881869,E,5,15,0.80,120.2085,M,43.9749,M,0.6,0417*78
$GNGST,080907.60,0.759,0.136,0.021,159.761,0.128,0.051,0.746*42
$GPGGA,080907.70,5100.7531303,N,01347.4884398,E,5,16,0.78,125.0504,M,43.9749,M,0.7,0417*7E
$GNGST,080907.70,0.790,0.166,0.019,159.374,0.155,0.061,0.773*47
$GPGGA,080907.80,5100.7531316,N,01347.4884424,E,5,16,0.78,125.0554,M,43.9749,M,0.8,0417*7F
$GNGST,080907.80,0.793,0.166,0.019,159.374,0.156,0.061,0.775*4E
$GPGGA,080907.90,5100.7531319,N,01347.4884407,E,5,16,0.78,125.0380,M,43.9749,M,0.9,0417*7E
$GNGST,080907.90,0.796,0.167,0.019,159.374,0.156,0.061,0.778*46
$GPGGA,080908.00,5100.7531319,N,01347.4884433,E,5,16,0.78,125.0430,M,43.9749,M,1.0,0417*7B
$GNGST,080908.00,0.798,0.167,0.019,159.374,0.157,0.062,0.780*4B
$GPGGA,080908.10,5100.7531307,N,01347.4884410,E,5,16,0.78,125.0566,M,43.9749,M,1.1,0417*77
$GNGST,080908.10,0.800,0.168,0.019,159.374,0.157,0.062,0.782*49
$GPGGA,080908.20,5100.7531374,N,01347.4884395,E,5,16,0.78,125.0535,M,43.9749,M,1.2,0417*7F
$GNGST,080908.20,0.803,0.168,0.019,159.374,0.158,0.062,0.785*41
$GPGGA,080908.30,5100.7531359,N,01347.4884391,E,5,16,0.78,125.0556,M,43.9749,M,1.3,0417*71
$GNGST,080908.30,0.805,0.169,0.019,159.374,0.158,0.062,0.787*45
$GPGGA,080908.40,5100.7531376,N,01347.4884382,E,5,16,0.78,125.0468,M,43.9749,M,1.4,0417*72
$GNGST,080908.40,0.808,0.169,0.019,159.374,0.159,0.062,0.790*48
$GPGGA,080908.50,5100.7531387,N,01347.4884411,E,5,16,0.78,125.0462,M,43.9749,M,1.5,0417*7B
$GNGST,080908.50,0.810,0.170,0.019,159.374,0.159,0.062,0.792*4A
$GPGGA,080908.60,5100.7531393,N,01347.4884434,E,5,16,0.78,125.0506,M,43.9749,M,0.6,0417*7B
$GNGST,080908.60,0.788,0.165,0.019,159.374,0.155,0.061,0.770*40
$GPGGA,080908.70,5100.7531754,N,01347.4884243,E,5,16,0.78,124.6963,M,43.9749,M,0.7,0417*7A
$GNGST,080908.70,0.782,0.164,0.018,159.372,0.154,0.060,0.764*48
$GPGGA,080908.80,5100.7531755,N,01347.4884236,E,5,16,0.78,124.7044,M,43.9749,M,0.8,0417*74
$GNGST,080908.80,0.784,0.165,0.018,159.372,0.154,0.060,0.767*43
$GPGGA,080908.90,5100.7531767,N,01347.4884255,E,5,16,0.78,124.7103,M,43.9749,M,0.9,0417*72
$GNGST,080908.90,0.787,0.165,0.018,159.372,0.155,0.061,0.769*4F
$GPGGA,080909.00,5100.7531771,N,01347.4884263,E,5,16,0.78,124.6793,M,43.9749,M,1.0,0417*7E
$GNGST,080909.00,0.789,0.166,0.018,159.372,0.155,0.061,0.772*40
$GPGGA,080909.10,5100.7531774,N,01347.4884252,E,5,16,0.78,124.6980,M,43.9749,M,1.1,0417*75
$GNGST,080909.10,0.792,0.166,0.019,159.372,0.156,0.061,0.774*4F
$GPGGA,080909.20,5100.7531767,N,01347.4884266,E,5,16,0.78,124.6941,M,43.9749,M,1.2,0417*7D
$GNGST,080909.20,0.794,0.167,0.019,159.372,0.156,0.061,0.776*49
$GPGGA,080909.30,5100.7531775,N,01347.4884270,E,5,16,0.78,124.7123,M,43.9749,M,1.3,0417*74
$GNGST,080909.30,0.797,0.167,0.019,159.372,0.157,0.061,0.779*45
$GPGGA,080909.40,5100.7531751,N,01347.4884282,E,5,16,0.78,124.7090,M,43.9749,M,1.4,0417*76
$GNGST,080909.40,0.799,0.168,0.019,159.372,0.157,0.062,0.781*47
$GPGGA,080909.50,5100.7531771,N,01347.4884263,E,5,16,0.78,124.7218,M,43.9749,M,1.5,0417*79
$GNGST,080909.50,0.802,0.168,0.019,159.372,0.157,0.062,0.784*4E
$GPGGA,080909.60,5100.7531775,N,01347.4884279,E,5,16,0.78,124.7082,M,43.9749,M,1.6,0417*77
$GNGST,080909.60,0.804,0.169,0.019,159.372,0.158,0.062,0.786*47
$GPGGA,080909.70,5100.7531770,N,01347.4884296,E,5,16,0.78,124.7303,M,43.9749,M,1.7,0417*79
$GNGST,080909.70,0.806,0.169,0.019,159.372,0.158,0.062,0.788*4A
$GPGGA,080909.80,5100.7531774,N,01347.4884271,E,5,16,0.78,124.7268,M,43.9749,M,0.8,0417*79
$GNGST,080909.80,0.784,0.165,0.018,159.372,0.154,0.060,0.767*42
$GPGGA,080909.90,5100.7531707,N,01347.4884289,E,5,16,0.78,124.7295,M,43.9749,M,0.9,0417*78
$GNGST,080909.90,0.780,0.163,0.018,159.380,0.153,0.060,0.762*4E
$GPGGA,080910.00,5100.7531741,N,01347.4884347,E,5,16,0.78,124.7179,M,43.9749,M,1.0,0417*71
$GNGST,080910.00,0.782,0.164,0.018,159.380,0.154,0.060,0.765*4A
$GPGGA,080910.10,5100.7531704,N,01347.4884271,E,5,16,0.78,124.7366,M,43.9749,M,1.1,0417*78
$GNGST,080910.10,0.785,0.164,0.018,159.380,0.154,0.060,0.767*4E
$GPGGA,080910.20,5100.7531711,N,01347.4884284,E,5,16,0.78,124.7234,M,43.9749,M,1.2,0417*70
$GNGST,080910.20,0.787,0.165,0.018,159.380,0.155,0.061,0.769*40
$GPGGA,080910.30,5100.7531707,N,01347.4884287,E,5,16,0.78,124.7221,M,43.9749,M,1.3,0417*70
$GNGST,080910.30,0.789,0.165,0.018,159.380,0.155,0.061,0.772*45
$GPGGA,080910.40,5100.7531713,N,01347.4884309,E,5,16,0.78,124.7195,M,43.9749,M,1.4,0417*7E
$GNGST,080910.40,0.792,0.166,0.018,159.380,0.155,0.061,0.774*4D
$GPGGA,080910.50,5100.7531700,N,01347.4884290,E,5,16,0.78,124.7184,M,43.9749,M,1.5,0417*7D
$GNGST,080910.50,0.794,0.166,0.018,159.380,0.156,0.061,0.776*4B
$GPGGA,080910.60,5100.7531724,N,01347.4884286,E,5,16,0.78,124.7189,M,43.9749,M,0.6,0417*70
$GNGST,080910.60,0.772,0.162,0.018,159.380,0.152,0.059,0.755*4A
$GPGGA,080910.70,5100.7532023,N,01347.4884189,E,5,16,0.78,124.4160,M,43.9749,M,0.7,0417*7B
$GNGST,080910.70,0.772,0.162,0.018,159.432,0.151,0.059,0.754*47
$GPGGA,080910.80,5100.7520535,N,01347.4891869,E,5,16,0.78,136.2605,M,43.9749,M,0.8,0417*78
$GNGST,080910.80,0.735,0.136,0.019,158.119,0.126,0.054,0.722*4A
$GPGGA,080910.90,5100.7520502,N,01347.4891875,E,5,16,0.78,136.2770,M,43.9749,M,0.9,0417*72
$GNGST,080910.90,0.738,0.136,0.020,158.118,0.127,0.054,0.725*4B
$GPGGA,080911.00,5100.7520544,N,01347.4891851,E,5,16,0.78,136.2604,M,43.9749,M,1.0,0417*74
$GNGST,080911.00,0.740,0.137,0.020,158.118,0.127,0.054,0.727*4F
$GPGGA,080911.10,5100.7520534,N,01347.4891859,E,5,16,0.78,136.2574,M,43.9749,M,1.1,0417*7F
$GNGST,080911.10,0.742,0.137,0.020,158.118,0.128,0.054,0.729*4D
$GPGGA,080911.20,5100.7520555,N,01347.4891839,E,5,16,0.78,136.2439,M,43.9749,M,1.2,0417*76
$GNGST,080911.20,0.745,0.138,0.020,158.118,0.128,0.055,0.731*4E
$GPGGA,080911.30,5100.7520526,N,01347.4891880,E,5,16,0.78,136.2654,M,43.9749,M,1.3,0417*79
$GNGST,080911.30,0.747,0.138,0.020,158.118,0.128,0.055,0.734*48
$GPGGA,080911.40,5100.7520606,N,01347.4891848,E,5,16,0.78,136.2279,M,43.9749,M,1.4,0417*77
$GNGST,080911.40,0.749,0.139,0.020,158.117,0.129,0.055,0.736*4C
$GPGGA,080911.50,5100.7520550,N,01347.4891854,E,5,16,0.78,136.2614,M,43.9749,M,1.5,0417*75
$GNGST,080911.50,0.751,0.139,0.020,158.117,0.129,0.055,0.738*4A
$GPGGA,080911.60,5100.7520501,N,01347.4891855,E,5,16,0.78,136.2753,M,43.9749,M,1.6,0417*72
$GNGST,080911.60,0.754,0.139,0.020,158.117,0.130,0.055,0.740*4B
$GPGGA,080911.70,5100.7520530,N,01347.4891855,E,5,16,0.78,136.2724,M,43.9749,M,1.7,0417*70
$GNGST,080911.70,0.756,0.140,0.020,158.117,0.130,0.055,0.743*45
$GPGGA,080911.80,5100.7520508,N,01347.4891872,E,5,16,0.78,136.2781,M,43.9749,M,1.8,0417*71
$GNGST,080911.80,0.758,0.140,0.020,158.117,0.130,0.056,0.745*41
$GPGGA,080911.90,5100.7520540,N,01347.4891904,E,5,16,0.78,136.2636,M,43.9749,M,1.9,0417*70
$GNGST,080911.90,0.760,0.141,0.020,158.117,0.131,0.056,0.747*49
$GPGGA,080912.00,5100.7520536,N,01347.4891871,E,5,16,0.78,136.2673,M,43.9749,M,1.0,0417*70
$GNGST,080912.00,0.740,0.137,0.020,158.118,0.127,0.054,0.727*4C
$GPGGA,080912.10,5100.7533982,N,01347.4883965,E,5,16,0.75,122.2481,M,43.9749,M,1.1,0417*71
$GNGST,080912.10,0.771,0.170,0.019,160.324,0.160,0.060,0.752*46
$GPGGA,080912.20,5100.7533996,N,01347.4883996,E,5,16,0.75,122.2685,M,43.9749,M,1.2,0417*7E
$GNGST,080912.20,0.773,0.170,0.019,160.324,0.160,0.060,0.754*41
$GPGGA,080912.30,5100.7533982,N,01347.4883976,E,5,16,0.75,122.2717,M,43.9749,M,1.3,0417*7F
$GNGST,080912.30,0.776,0.171,0.019,160.324,0.161,0.060,0.756*47
$GPGGA,080912.40,5100.7533995,N,01347.4883965,E,5,16,0.75,122.2608,M,43.9749,M,1.4,0417*74
$GNGST,080912.40,0.778,0.171,0.019,160.324,0.161,0.060,0.759*41
$GPGGA,080912.50,5100.7533969,N,01347.4883930,E,5,16,0.75,122.2668,M,43.9749,M,1.5,0417*71
$GNGST,080912.50,0.780,0.172,0.019,160.324,0.162,0.061,0.761*4D
$GPGGA,080912.60,5100.7533992,N,01347.4883972,E,5,16,0.75,122.2599,M,43.9749,M,0.6,0417*7F
$GNGST,080912.60,0.759,0.167,0.018,160.325,0.157,0.059,0.740*40
$GPGGA,080912.70,5100.7534232,N,01347.4883877,E,5,16,0.76,122.0375,M,43.9749,M,0.7,0417*78
$GNGST,080912.70,0.758,0.167,0.018,160.338,0.157,0.059,0.739*42
$GPGGA,080912.80,5100.7534177,N,01347.4883878,E,5,16,0.76,122.1134,M,43.9749,M,0.8,0417*73
$GNGST,080912.80,0.756,0.167,0.018,160.313,0.157,0.059,0.737*44
$GPGGA,080912.90,5100.7534182,N,01347.4883858,E,5,16,0.76,122.1070,M,43.9749,M,0.9,0417*7A
$GNGST,080912.90,0.759,0.167,0.018,160.313,0.157,0.059,0.740*4A
$GPGGA,080913.00,5100.7534163,N,01347.4883843,E,5,16,0.76,122.1007,M,43.9749,M,1.0,0417*7F
$GNGST,080913.00,0.761,0.168,0.018,160.313,0.158,0.059,0.742*4B
$GPGGA,080913.10,5100.7534186,N,01347.4883869,E,5,16,0.76,122.0882,M,43.9749,M,1.1,0417*78
$GNGST,080913.10,0.763,0.168,0.018,160.313,0.158,0.059,0.744*4E
$GPGGA,080913.20,5100.7534176,N,01347.4883860,E,5,16,0.76,122.0886,M,43.9749,M,1.2,0417*7A
$GNGST,080913.20,0.766,0.169,0.018,160.313,0.159,0.059,0.747*4B
$GPGGA,080913.30,5100.7534183,N,01347.4883851,E,5,16,0.76,122.1018,M,43.9749,M,1.3,0417*7C
$GNGST,080913.30,0.768,0.169,0.018,160.313,0.159,0.060,0.749*40
$GPGGA,080913.40,5100.7534171,N,01347.4883842,E,5,16,0.76,122.1019,M,43.9749,M,1.4,0417*72
$GNGST,080913.40,0.770,0.170,0.019,160.313,0.160,0.060,0.751*44
$GPGGA,080913.50,5100.7534184,N,01347.4883875,E,5,16,0.76,122.1026,M,43.9749,M,1.5,0417*70
$GNGST,080913.50,0.773,0.170,0.019,160.313,0.160,0.060,0.754*43
$GPGGA,080913.60,5100.7534175,N,01347.4883884,E,5,16,0.76,122.1101,M,43.9749,M,0.6,0417*75
$GNGST,080913.60,0.751,0.165,0.018,160.313,0.156,0.058,0.733*4A
$GPGGA,080913.70,5100.7534419,N,01347.4883833,E,5,16,0.76,121.8521,M,43.9749,M,0.7,0417*7A
$GNGST,080913.70,0.746,0.164,0.018,160.299,0.155,0.058,0.727*49
$GPGGA,080913.80,5100.7534421,N,01347.4883839,E,5,16,0.76,121.8619,M,43.9749,M,0.8,0417*73
$GNGST,080913.80,0.748,0.165,0.018,160.299,0.155,0.058,0.730*4F
$GPGGA,080913.90,5100.7534418,N,01347.4883850,E,5,16,0.76,121.8641,M,43.9749,M,0.9,0417*7B
$GNGST,080913.90,0.751,0.166,0.018,160.299,0.156,0.058,0.732*44
$GPGGA,080914.00,5100.7534405,N,01347.4883801,E,5,16,0.76,121.8576,M,43.9749,M,1.0,0417*72
$GNGST,080914.00,0.753,0.166,0.018,160.299,0.156,0.059,0.734*4F
$GPGGA,080914.10,5100.7534404,N,01347.4883793,E,5,16,0.76,121.8765,M,43.9749,M,1.1,0417*77
$GNGST,080914.10,0.755,0.167,0.018,160.299,0.157,0.059,0.737*4B
$GPGGA,080914.20,5100.7534408,N,01347.4883818,E,5,16,0.76,121.8485,M,43.9749,M,1.2,0417*7A
$GNGST,080914.20,0.758,0.167,0.018,160.299,0.157,0.059,0.739*4B
$GPGGA,080914.30,5100.7534427,N,01347.4883836,E,5,16,0.76,121.8524,M,43.9749,M,1.3,0417*71
$GNGST,080914.30,0.760,0.168,0.018,160.299,0.158,0.059,0.741*4E
$GPGGA,080914.40,5100.7534405,N,01347.4883825,E,5,16,0.76,121.8450,M,43.9749,M,1.4,0417*71
$GNGST,080914.40,0.762,0.168,0.018,160.299,0.158,0.059,0.743*49
$GPGGA,080914.50,5100.7534413,N,01347.4883827,E,5,16,0.76,121.8532,M,43.9749,M,1.5,0417*71
$GNGST,080914.50,0.765,0.169,0.018,160.299,0.159,0.059,0.746*4A
$GPGGA,080914.60,5100.7534403,N,01347.4883821,E,5,16,0.76,121.8376,M,43.9749,M,1.6,0417*70
$GNGST,080914.60,0.767,0.169,0.018,160.299,0.159,0.060,0.748*4F
$GPGGA,080914.70,5100.7534403,N,01347.4883809,E,5,16,0.76,121.8424,M,43.9749,M,0.7,0417*7B
$GNGST,080914.70,0.746,0.164,0.018,160.299,0.155,0.058,0.727*4E
$GPGGA,080914.80,5100.7534595,N,01347.4883821,E,5,16,0.76,121.5992,M,43.9749,M,0.8,0417*72
$GNGST,080914.80,0.745,0.164,0.018,160.312,0.155,0.058,0.727*40
$GPGGA,080914.90,5100.7534532,N,01347.4883834,E,5,16,0.76,121.6633,M,43.9749,M,0.9,0417*7C
$GNGST,080914.90,0.743,0.164,0.018,160.285,0.154,0.058,0.725*4B
$GPGGA,080915.00,5100.7534523,N,01347.4883831,E,5,16,0.76,121.6717,M,43.9749,M,1.0,0417*7E
$GNGST,080915.00,0.746,0.164,0.018,160.285,0.155,0.058,0.727*45
$GPGGA,080915.10,5100.7534519,N,01347.4883845,E,5,16,0.76,121.7018,M,43.9749,M,1.1,0417*7D
$GNGST,080915.10,0.748,0.165,0.018,160.285,0.155,0.058,0.729*45
$GPGGA,080915.20,5100.7534536,N,01347.4883866,E,5,16,0.76,121.6805,M,43.9749,M,1.2,0417*74
$GNGST,080915.20,0.750,0.166,0.018,160.284,0.156,0.058,0.731*47
$GPGGA,080915.30,5100.7534548,N,01347.4883862,E,5,16,0.76,121.6846,M,43.9749,M,1.3,0417*7E
$GNGST,080915.30,0.752,0.166,0.018,160.284,0.156,0.059,0.734*40
$GPGGA,080915.40,5100.7534535,N,01347.4883881,E,5,16,0.76,121.6862,M,43.9749,M,1.4,0417*7F
$GNGST,080915.40,0.755,0.167,0.018,160.284,0.157,0.059,0.736*42
$GPGGA,080915.50,5100.7534534,N,01347.4883854,E,5,16,0.76,121.6867,M,43.9749,M,1.5,0417*73
$GNGST,080915.50,0.757,0.167,0.018,160.284,0.157,0.059,0.738*4F
$GPGGA,080915.60,5100.7534564,N,01347.4883886,E,5,16,0.76,121.6950,M,43.9749,M,0.6,0417*7D
$GNGST,080915.60,0.736,0.162,0.018,160.285,0.153,0.057,0.718*47
$GPGGA,080915.70,5100.7534744,N,01347.4883826,E,5,16,0.76,121.4847,M,43.9749,M,0.7,0417*72
$GNGST,080915.70,0.736,0.162,0.018,160.299,0.153,0.057,0.717*44
$GPGGA,080915.80,5100.7534668,N,01347.4883822,E,5,16,0.76,121.5552,M,43.9749,M,0.8,0417*71
$GNGST,080915.80,0.734,0.162,0.018,160.274,0.153,0.057,0.715*48
$GPGGA,080915.90,5100.7534670,N,01347.4883823,E,5,16,0.76,121.5441,M,43.9749,M,0.9,0417*7A
$GNGST,080915.90,0.736,0.162,0.018,160.274,0.153,0.057,0.718*46
$GPGGA,080916.00,5100.7534672,N,01347.4883832,E,5,16,0.76,121.5446,M,43.9749,M,1.0,0417*7D
$GNGST,080916.00,0.738,0.163,0.018,160.274,0.154,0.057,0.720*4F
$GPGGA,080916.10,5100.7534680,N,01347.4883845,E,5,16,0.76,121.5421,M,43.9749,M,1.1,0417*71
$GNGST,080916.10,0.741,0.164,0.018,160.274,0.154,0.058,0.722*4A
$GPGGA,080916.20,5100.7534666,N,01347.4883825,E,5,16,0.76,121.5612,M,43.9749,M,1.2,0417*7D
$GNGST,080916.20,0.743,0.164,0.018,160.274,0.155,0.058,0.724*4C
$GPGGA,080916.30,5100.7534670,N,01347.4883837,E,5,16,0.76,121.5559,M,43.9749,M,1.3,0417*75
$GNGST,080916.30,0.745,0.165,0.018,160.274,0.155,0.058,0.727*49
$GPGGA,080916.40,5100.7534664,N,01347.4883838,E,5,16,0.76,121.5422,M,43.9749,M,1.4,0417*72
$GNGST,080916.40,0.748,0.165,0.018,160.274,0.155,0.058,0.729*4D
$GPGGA,080916.50,5100.7534664,N,01347.4883856,E,5,16,0.76,121.5609,M,43.9749,M,1.5,0417*71
$GNGST,080916.50,0.750,0.166,0.018,160.273,0.156,0.058,0.731*4B
$GPGGA,080916.60,5100.7534685,N,01347.4883815,E,5,16,0.76,121.5474,M,43.9749,M,0.6,0417*70
$GNGST,080916.60,0.729,0.161,0.017,160.274,0.152,0.057,0.711*40
$GPGGA,080916.70,5100.7534867,N,01347.4883798,E,5,16,0.76,121.3657,M,43.9749,M,0.7,0417*7D
$GNGST,080916.70,0.729,0.161,0.017,160.276,0.151,0.057,0.711*40
$GPGGA,080916.80,5100.7534795,N,01347.4883820,E,5,16,0.76,121.4518,M,43.9749,M,0.8,0417*7C
$GNGST,080916.80,0.727,0.160,0.017,160.253,0.151,0.057,0.709*4E
$GPGGA,080916.90,5100.7534805,N,01347.4883826,E,5,16,0.76,121.4406,M,43.9749,M,0.9,0417*72
$GNGST,080916.90,0.729,0.161,0.017,160.253,0.152,0.057,0.711*4A
$GPGGA,080917.00,5100.7534805,N,01347.4883820,E,5,16,0.76,121.4333,M,43.9749,M,1.0,0417*75
$GNGST,080917.00,0.732,0.162,0.017,160.253,0.152,0.057,0.713*49
$GPGGA,080917.10,5100.7534791,N,01347.4883809,E,5,16,0.76,121.4334,M,43.9749,M,1.1,0417*7B
$GNGST,080917.10,0.734,0.162,0.017,160.253,0.153,0.057,0.716*4A
$GPGGA,080917.20,5100.7534802,N,01347.4883811,E,5,16,0.76,121.4250,M,43.9749,M,1.2,0417*74
$GNGST,080917.20,0.736,0.163,0.017,160.253,0.153,0.057,0.718*44
$GPGGA,080917.30,5100.7534801,N,01347.4883796,E,5,16,0.76,121.4233,M,43.9749,M,1.3,0417*72
$GNGST,080917.30,0.738,0.163,0.017,160.253,0.154,0.057,0.720*47
$GPGGA,080917.40,5100.7534808,N,01347.4883816,E,5,16,0.76,121.4364,M,43.9749,M,1.4,0417*7F
$GNGST,080917.40,0.741,0.164,0.017,160.253,0.154,0.058,0.722*44
$GPGGA,080917.50,5100.7534815,N,01347.4883833,E,5,16,0.76,121.4309,M,43.9749,M,1.5,0417*7F
$GNGST,080917.50,0.743,0.164,0.017,160.253,0.154,0.058,0.724*41
$GPGGA,080917.60,5100.7534799,N,01347.4883832,E,5,16,0.76,121.4424,M,43.9749,M,0.6,0417*7C
$GNGST,080917.60,0.722,0.159,0.017,160.254,0.150,0.056,0.704*44
$GPGGA,080917.70,5100.7534924,N,01347.4883774,E,5,16,0.76,121.3506,M,43.9749,M,0.7,0417*7F
$GNGST,080917.70,0.722,0.159,0.017,160.288,0.150,0.056,0.704*44
$GPGGA,080917.80,5100.7534830,N,01347.4883817,E,5,16,0.76,121.4593,M,43.9749,M,0.8,0417*7A
$GNGST,080917.80,0.721,0.159,0.017,160.274,0.150,0.056,0.703*4C
$GPGGA,080917.90,5100.7534846,N,01347.4883819,E,5,16,0.76,121.4442,M,43.9749,M,0.9,0417*78
$GNGST,080917.90,0.724,0.160,0.017,160.274,0.150,0.056,0.706*47
$GPGGA,080918.00,5100.7534834,N,01347.4883824,E,5,16,0.76,121.4336,M,43.9749,M,1.0,0417*79
$GNGST,080918.00,0.726,0.160,0.017,160.274,0.151,0.056,0.708*4C
$GPGGA,080918.10,5100.7534822,N,01347.4883795,E,5,16,0.76,121.4376,M,43.9749,M,1.1,0417*7F
$GNGST,080918.10,0.728,0.161,0.017,160.274,0.151,0.057,0.710*4A
$GPGGA,080918.20,5100.7534829,N,01347.4883806,E,5,16,0.76,121.4526,M,43.9749,M,1.2,0417*72
$GNGST,080918.20,0.730,0.161,0.017,160.273,0.152,0.057,0.712*46
$GPGGA,080918.30,5100.7534823,N,01347.4883785,E,5,16,0.76,121.4410,M,43.9749,M,1.3,0417*78
$GNGST,080918.30,0.733,0.162,0.017,160.273,0.152,0.057,0.714*41
$GPGGA,080918.40,5100.7534838,N,01347.4883811,E,5,16,0.76,121.4403,M,43.9749,M,1.4,0417*72
$GNGST,080918.40,0.735,0.162,0.017,160.273,0.153,0.057,0.717*42
$GPGGA,080918.50,5100.7534835,N,01347.4883788,E,5,16,0.76,121.4314,M,43.9749,M,1.5,0417*71
$GNGST,080918.50,0.737,0.163,0.017,160.273,0.153,0.057,0.719*4E
$GPGGA,080918.60,5100.7534832,N,01347.4883833,E,5,16,0.76,121.4277,M,43.9749,M,1.6,0417*7D
$GNGST,080918.60,0.739,0.163,0.017,160.273,0.154,0.057,0.721*4F
$GPGGA,080918.70,5100.7534835,N,01347.4883800,E,5,16,0.76,121.4218,M,43.9749,M,1.7,0417*73
$GNGST,080918.70,0.742,0.164,0.017,160.273,0.154,0.058,0.723*48
$GPGGA,080918.80,5100.7534834,N,01347.4883815,E,5,16,0.76,121.4200,M,43.9749,M,1.8,0417*7F
$GNGST,080918.80,0.744,0.164,0.018,160.273,0.155,0.058,0.725*49
$GPGGA,080918.90,5100.7534851,N,01347.4883800,E,5,16,0.76,121.4273,M,43.9749,M,1.9,0417*7C
$GNGST,080918.90,0.746,0.165,0.018,160.273,0.155,0.058,0.727*49
$GPGGA,080919.00,5100.7534848,N,01347.4883810,E,5,16,0.76,121.4256,M,43.9749,M,2.0,0417*70
$GNGST,080919.00,0.748,0.165,0.018,160.273,0.155,0.058,0.730*49
$GPGGA,080919.10,5100.7534838,N,01347.4883799,E,5,16,0.76,121.4493,M,43.9749,M,2.1,0417*76
$GNGST,080919.10,0.750,0.166,0.018,160.273,0.156,0.058,0.732*43
$GPGGA,080919.20,5100.7534835,N,01347.4883790,E,5,16,0.76,121.4352,M,43.9749,M,2.2,0417*78
$GNGST,080919.20,0.753,0.166,0.018,160.273,0.156,0.058,0.734*45
$GPGGA,080919.30,5100.7534839,N,01347.4883813,E,5,16,0.76,121.4443,M,43.9749,M,2.3,0417*77
$GNGST,080919.30,0.755,0.167,0.018,160.273,0.157,0.059,0.736*41
$GPGGA,080919.40,5100.7534853,N,01347.4883822,E,5,16,0.76,121.4360,M,43.9749,M,2.4,0417*7F
$GNGST,080919.40,0.757,0.167,0.018,160.272,0.157,0.059,0.738*4B
$GPGGA,080919.50,5100.7534840,N,01347.4883797,E,5,16,0.76,121.4375,M,43.9749,M,2.5,0417*78
$GNGST,080919.50,0.759,0.167,0.018,160.272,0.158,0.059,0.740*44
$GPGGA,080919.60,5100.7534849,N,01347.4883827,E,5,16,0.76,121.4443,M,43.9749,M,2.6,0417*77
$GNGST,080919.60,0.761,0.168,0.018,160.272,0.158,0.059,0.742*41
$GPGGA,080919.70,5100.7534849,N,01347.4883839,E,5,16,0.76,121.4274,M,43.9749,M,2.7,0417*7A
$GNGST,080919.70,0.763,0.168,0.018,160.272,0.159,0.059,0.744*45
$GPGGA,080919.80,5100.7534838,N,01347.4883812,E,5,16,0.76,121.4349,M,43.9749,M,2.8,0417*7A
$GNGST,080919.80,0.766,0.169,0.018,160.272,0.159,0.059,0.746*4C
$GPGGA,080919.90,5100.7534851,N,01347.4883797,E,5,16,0.76,121.4418,M,43.9749,M,2.9,0417*74
$GNGST,080919.90,0.768,0.169,0.018,160.272,0.160,0.060,0.749*4C
$GPGGA,080920.00,5100.7534856,N,01347.4883821,E,5,16,0.76,121.4429,M,43.9749,M,3.0,0417*78
$GNGST,080920.00,0.770,0.170,0.018,160.272,0.160,0.060,0.751*47
$GPGGA,080920.10,5100.7534853,N,01347.4883819,E,5,16,0.76,121.4381,M,43.9749,M,3.1,0417*73
$GNGST,080920.10,0.772,0.170,0.018,160.272,0.160,0.060,0.753*46
$GPGGA,080920.20,5100.7534827,N,01347.4883820,E,5,16,0.76,121.4237,M,43.9749,M,2.2,0417*77
$GNGST,080920.20,0.753,0.166,0.018,160.273,0.156,0.058,0.734*4F
$GPGGA,080920.30,5100.7534969,N,01347.4883817,E,5,16,0.76,121.2590,M,43.9749,M,2.3,0417*74
$GNGST,080920.30,0.752,0.166,0.018,160.280,0.156,0.058,0.733*44
$GPGGA,080920.40,5100.7534889,N,01347.4883857,E,5,16,0.76,121.3536,M,43.9749,M,1.4,0417*71
$GNGST,080920.40,0.728,0.161,0.017,160.258,0.151,0.057,0.710*4A
$GPGGA,080920.50,5100.7535065,N,01347.4883798,E,5,16,0.76,121.1766,M,43.9749,M,1.5,0417*73
$GNGST,080920.50,0.728,0.161,0.017,160.266,0.151,0.057,0.710*46
$GPGGA,080920.60,5100.7535000,N,01347.4883817,E,5,16,0.76,121.2683,M,43.9749,M,0.6,0417*70
$GNGST,080920.60,0.704,0.155,0.017,160.245,0.146,0.055,0.687*46
$GPGGA,080920.70,5100.7535193,N,01347.4883822,E,5,16,0.76,121.0540,M,43.9749,M,0.7,0417*73
$GNGST,080920.70,0.704,0.155,0.016,160.256,0.146,0.055,0.686*45
$GPGGA,080920.80,5100.7535134,N,01347.4883808,E,5,16,0.76,121.1626,M,43.9749,M,0.8,0417*74
$GNGST,080920.80,0.702,0.155,0.016,160.230,0.146,0.055,0.685*4F
$GPGGA,080920.90,5100.7535136,N,01347.4883787,E,5,16,0.76,121.1579,M,43.9749,M,0.9,0417*77
$GNGST,080920.90,0.705,0.156,0.016,160.230,0.147,0.055,0.687*49
$GPGGA,080921.00,5100.7535131,N,01347.4883793,E,5,16,0.76,121.1465,M,43.9749,M,1.0,0417*79
$GNGST,080921.00,0.707,0.156,0.016,160.230,0.147,0.055,0.689*4D
$GPGGA,080921.10,5100.7535141,N,01347.4883813,E,5,16,0.76,121.1423,M,43.9749,M,1.1,0417*7B
$GNGST,080921.10,0.709,0.157,0.016,160.230,0.147,0.055,0.691*4A
$GPGGA,080921.20,5100.7535132,N,01347.4883786,E,5,16,0.76,121.1383,M,43.9749,M,1.2,0417*71
$GNGST,080921.20,0.711,0.157,0.016,160.230,0.148,0.055,0.693*4D
$GPGGA,080921.30,5100.7535137,N,01347.4883798,E,5,16,0.76,121.1473,M,43.9749,M,1.3,0417*73
$GNGST,080921.30,0.713,0.158,0.017,160.230,0.148,0.056,0.696*46
$GPGGA,080921.40,5100.7535128,N,01347.4883801,E,5,16,0.76,121.1520,M,43.9749,M,1.4,0417*75
$GNGST,080921.40,0.716,0.158,0.017,160.230,0.149,0.056,0.698*4B
$GPGGA,080921.50,5100.7535125,N,01347.4883808,E,5,16,0.76,121.1551,M,43.9749,M,1.5,0417*77
$GNGST,080921.50,0.718,0.159,0.017,160.230,0.149,0.056,0.700*45
$GPGGA,080921.60,5100.7535134,N,01347.4883810,E,5,16,0.76,121.1625,M,43.9749,M,0.6,0417*7F
$GNGST,080921.60,0.698,0.154,0.016,160.230,0.145,0.054,0.680*44
$GPGGA,080921.70,5100.7535283,N,01347.4883764,E,5,16,0.76,121.0260,M,43.9749,M,0.7,0417*78
$GNGST,080921.70,0.698,0.154,0.016,160.244,0.145,0.054,0.680*46
$GPGGA,080921.80,5100.7535207,N,01347.4883766,E,5,16,0.76,121.1367,M,43.9749,M,0.8,0417*71
$GNGST,080921.80,0.697,0.154,0.016,160.226,0.145,0.054,0.679*44
$GPGGA,080921.90,5100.7535202,N,01347.4883780,E,5,16,0.76,121.1347,M,43.9749,M,0.9,0417*7E
$GNGST,080921.90,0.699,0.154,0.016,160.226,0.145,0.054,0.682*4F
$GPGGA,080922.00,5100.7535210,N,01347.4883767,E,5,16,0.76,121.1401,M,43.9749,M,1.0,0417*73
$GNGST,080922.00,0.701,0.155,0.016,160.226,0.146,0.055,0.684*40
$GPGGA,080922.10,5100.7535207,N,01347.4883753,E,5,16,0.76,121.1252,M,43.9749,M,1.1,0417*72
$GNGST,080922.10,0.703,0.155,0.016,160.226,0.146,0.055,0.686*41
$GPGGA,080922.20,5100.7535204,N,01347.4883777,E,5,16,0.76,121.1245,M,43.9749,M,1.2,0417*71
$GNGST,080922.20,0.706,0.156,0.016,160.226,0.147,0.055,0.688*4B
$GPGGA,080922.30,5100.7535206,N,01347.4883753,E,5,16,0.76,121.1147,M,43.9749,M,1.3,0417*74
$GNGST,080922.30,0.708,0.156,0.016,160.226,0.147,0.055,0.690*4D
$GPGGA,080922.40,5100.7535204,N,01347.4883757,E,5,16,0.76,121.1291,M,43.9749,M,1.4,0417*7A
$GNGST,080922.40,0.710,0.157,0.016,160.226,0.148,0.055,0.692*4F
$GPGGA,080922.50,5100.7535215,N,01347.4883779,E,5,16,0.76,121.1024,M,43.9749,M,1.5,0417*7A
$GNGST,080922.50,0.712,0.157,0.016,160.226,0.148,0.055,0.694*4A
$GPGGA,080922.60,5100.7535206,N,01347.4883766,E,5,16,0.76,121.1385,M,43.9749,M,0.6,0417*7F
$GNGST,080922.60,0.692,0.153,0.016,160.226,0.144,0.054,0.675*46
$GPGGA,080922.70,5100.7535404,N,01347.4883689,E,5,16,0.76,120.9598,M,43.9749,M,0.7,0417*78
$GNGST,080922.70,0.692,0.153,0.016,160.248,0.144,0.054,0.675*4F
$GPGGA,080922.80,5100.7535320,N,01347.4883654,E,5,16,0.76,121.0847,M,43.9749,M,0.8,0417*7E
$GNGST,080922.80,0.691,0.153,0.016,160.230,0.144,0.054,0.674*4D
$GPGGA,080922.90,5100.7535317,N,01347.4883667,E,5,16,0.76,121.0954,M,43.9749,M,0.9,0417*79
$GNGST,080922.90,0.694,0.153,0.016,160.230,0.144,0.054,0.676*4B
$GPGGA,080923.00,5100.7535332,N,01347.4883689,E,5,16,0.76,121.0977,M,43.9749,M,1.0,0417*7F
$GNGST,080923.00,0.696,0.154,0.016,160.230,0.145,0.054,0.678*49
$GPGGA,080923.10,5100.7535339,N,01347.4883683,E,5,16,0.76,121.0934,M,43.9749,M,1.1,0417*79
$GNGST,080923.10,0.698,0.154,0.016,160.230,0.145,0.054,0.681*40
$GPGGA,080923.20,5100.7535333,N,01347.4883699,E,5,16,0.76,121.0855,M,43.9749,M,1.2,0417*7E
$GNGST,080923.20,0.700,0.155,0.016,160.230,0.146,0.054,0.683*43
$GPGGA,080923.30,5100.7535332,N,01347.4883666,E,5,16,0.76,121.0929,M,43.9749,M,1.3,0417*75
$GNGST,080923.30,0.702,0.155,0.016,160.230,0.146,0.055,0.685*47
$GPGGA,080923.40,5100.7535329,N,01347.4883661,E,5,16,0.76,121.0993,M,43.9749,M,1.4,0417*79
$GNGST,080923.40,0.704,0.156,0.016,160.230,0.146,0.055,0.687*47
$GPGGA,080923.50,5100.7535325,N,01347.4883670,E,5,16,0.76,121.1029,M,43.9749,M,1.5,0417*7C
$GNGST,080923.50,0.707,0.156,0.016,160.230,0.147,0.055,0.689*4A
$GPGGA,080923.60,5100.7535339,N,01347.4883666,E,5,16,0.76,121.1014,M,43.9749,M,0.6,0417*79
$GNGST,080923.60,0.687,0.152,0.016,160.231,0.143,0.053,0.670*41
$GPGGA,080923.70,5100.7535466,N,01347.4883631,E,5,16,0.76,120.9723,M,43.9749,M,0.7,0417*7C
$GNGST,080923.70,0.687,0.152,0.016,160.237,0.143,0.053,0.670*46
$GPGGA,080923.80,5100.7535386,N,01347.4883651,E,5,16,0.76,121.0912,M,43.9749,M,0.8,0417*77
$GNGST,080923.80,0.686,0.151,0.016,160.219,0.143,0.053,0.669*4F
$GPGGA,080923.90,5100.7535378,N,01347.4883628,E,5,16,0.76,121.1009,M,43.9749,M,0.9,0417*7A
$GNGST,080923.90,0.688,0.152,0.016,160.219,0.143,0.054,0.671*4D
$GPGGA,080924.00,5100.7535376,N,01347.4883644,E,5,16,0.76,121.0929,M,43.9749,M,1.0,0417*72
$GNGST,080924.00,0.691,0.152,0.016,160.219,0.143,0.054,0.673*49
$GPGGA,080924.10,5100.7535391,N,01347.4883661,E,5,16,0.76,121.0753,M,43.9749,M,1.1,0417*7F
$GNGST,080924.10,0.693,0.153,0.016,160.219,0.144,0.054,0.675*4A
$GPGGA,080924.20,5100.7535386,N,01347.4883650,E,5,16,0.76,121.0906,M,43.9749,M,1.2,0417*75
$GNGST,080924.20,0.695,0.153,0.016,160.219,0.144,0.054,0.678*42
$GPGGA,080924.30,5100.7535396,N,01347.4883642,E,5,16,0.76,121.0818,M,43.9749,M,1.3,0417*79
$GNGST,080924.30,0.697,0.154,0.016,160.219,0.145,0.054,0.680*40
$GPGGA,080924.40,5100.7535383,N,01347.4883657,E,5,16,0.76,121.0872,M,43.9749,M,1.4,0417*75
$GNGST,080924.40,0.699,0.154,0.016,160.219,0.145,0.054,0.682*4B
$GPGGA,080924.50,5100.7535381,N,01347.4883637,E,5,16,0.76,121.0864,M,43.9749,M,1.5,0417*76
$GNGST,080924.50,0.701,0.155,0.016,160.219,0.146,0.055,0.684*4F
$GPGGA,080924.60,5100.7535373,N,01347.4883626,E,5,16,0.76,121.0832,M,43.9749,M,0.6,0417*79
$GNGST,080924.60,0.682,0.150,0.016,160.219,0.142,0.053,0.665*4E
$GPGGA,080924.70,5100.7535379,N,01347.4883648,E,5,16,0.76,121.0803,M,43.9749,M,0.7,0417*79
$GNGST,080924.70,0.684,0.151,0.016,160.219,0.142,0.053,0.667*4A
$GPGGA,080924.80,5100.7535480,N,01347.4883558,E,5,16,0.76,121.0774,M,43.9749,M,0.8,0417*75
$GNGST,080924.80,0.681,0.150,0.015,160.220,0.141,0.053,0.664*48
$GPGGA,080924.90,5100.7535479,N,01347.4883565,E,5,16,0.76,121.0835,M,43.9749,M,0.9,0417*77
$GNGST,080924.90,0.683,0.151,0.015,160.220,0.142,0.053,0.666*4B
$GPGGA,080925.00,5100.7535481,N,01347.4883548,E,5,16,0.76,121.0767,M,43.9749,M,1.0,0417*77
$GNGST,080925.00,0.685,0.151,0.016,160.220,0.142,0.053,0.668*48
$GPGGA,080925.10,5100.7535480,N,01347.4883565,E,5,16,0.76,121.0814,M,43.9749,M,1.1,0417*72
$GNGST,080925.10,0.688,0.152,0.016,160.220,0.143,0.053,0.670*4F
$GPGGA,080925.20,5100.7535489,N,01347.4883555,E,5,16,0.76,121.0510,M,43.9749,M,1.2,0417*71
$GNGST,080925.20,0.690,0.152,0.016,160.220,0.143,0.054,0.672*40
$GPGGA,080925.30,5100.7535478,N,01347.4883548,E,5,16,0.76,121.0725,M,43.9749,M,1.3,0417*77
$GNGST,080925.30,0.692,0.153,0.016,160.220,0.144,0.054,0.675*42
$GPGGA,080925.40,5100.7535486,N,01347.4883547,E,5,16,0.76,121.0703,M,43.9749,M,1.4,0417*7D
$GNGST,080925.40,0.694,0.153,0.016,160.220,0.144,0.054,0.677*41
$GPGGA,080925.50,5100.7535487,N,01347.4883555,E,5,16,0.76,121.0438,M,43.9749,M,1.5,0417*74
$GNGST,080925.50,0.696,0.154,0.016,160.220,0.145,0.054,0.679*4A
$GPGGA,080925.60,5100.7535489,N,01347.4883557,E,5,16,0.76,121.0596,M,43.9749,M,1.6,0417*7D
$GNGST,080925.60,0.698,0.154,0.016,160.220,0.145,0.054,0.681*40
$GPGGA,080925.70,5100.7535486,N,01347.4883551,E,5,16,0.76,121.0622,M,43.9749,M,1.7,0417*78
$GNGST,080925.70,0.700,0.154,0.016,160.220,0.145,0.054,0.683*43
$GPGGA,080925.80,5100.7535479,N,01347.4883539,E,5,16,0.76,121.0645,M,43.9749,M,1.8,0417*77
$GNGST,080925.80,0.702,0.155,0.016,160.220,0.146,0.055,0.685*4B
$GPGGA,080925.90,5100.7535494,N,01347.4883564,E,5,16,0.76,121.0632,M,43.9749,M,1.9,0417*7C
$GNGST,080925.90,0.704,0.155,0.016,160.220,0.146,0.055,0.687*4E
$GPGGA,080926.00,5100.7535492,N,01347.4883557,E,5,16,0.76,121.0525,M,43.9749,M,2.0,0417*7F
$GNGST,080926.00,0.706,0.156,0.016,160.220,0.147,0.055,0.689*4A
$GPGGA,080926.10,5100.7535486,N,01347.4883565,E,5,16,0.76,121.0720,M,43.9749,M,2.1,0417*7C
$GNGST,080926.10,0.709,0.156,0.016,160.220,0.147,0.055,0.691*4D
$GPGGA,080926.20,5100.7535486,N,01347.4883559,E,5,16,0.76,121.0757,M,43.9749,M,2.2,0417*73
$GNGST,080926.20,0.711,0.157,0.016,160.220,0.148,0.055,0.693*4B
$GPGGA,080926.30,5100.7535486,N,01347.4883567,E,5,16,0.76,121.0658,M,43.9749,M,2.3,0417*70
$GNGST,080926.30,0.713,0.157,0.016,160.220,0.148,0.055,0.695*4E
$GPGGA,080926.40,5100.7535491,N,01347.4883569,E,5,16,0.76,121.0707,M,43.9749,M,2.4,0417*73
$GNGST,080926.40,0.715,0.158,0.016,160.220,0.148,0.055,0.697*42
$GPGGA,080926.50,5100.7535490,N,01347.4883574,E,5,16,0.76,121.0729,M,43.9749,M,2.5,0417*72
$GNGST,080926.50,0.717,0.158,0.016,160.220,0.149,0.056,0.699*4D
$GPGGA,080926.60,5100.7535483,N,01347.4883558,E,5,16,0.76,121.0665,M,43.9749,M,2.6,0417*77
$GNGST,080926.60,0.719,0.159,0.016,160.220,0.149,0.056,0.701*41
$GPGGA,080926.70,5100.7535496,N,01347.4883583,E,5,16,0.76,121.0646,M,43.9749,M,2.7,0417*74
$GNGST,080926.70,0.721,0.159,0.016,160.220,0.150,0.056,0.703*41
$GPGGA,080926.80,5100.7535486,N,01347.4883589,E,5,16,0.76,121.0812,M,43.9749,M,2.8,0417*70
$GNGST,080926.80,0.723,0.159,0.016,160.220,0.150,0.056,0.705*4A
$GPGGA,080926.90,5100.7535491,N,01347.4883574,E,5,16,0.76,121.0604,M,43.9749,M,2.9,0417*7D
$GNGST,080926.90,0.725,0.160,0.016,160.220,0.151,0.056,0.707*44
$GPGGA,080927.00,5100.7535486,N,01347.4883558,E,5,16,0.76,121.0719,M,43.9749,M,3.0,0417*78
$GNGST,080927.00,0.727,0.160,0.016,160.220,0.151,0.056,0.709*40
$GPGGA,080927.10,5100.7535499,N,01347.4883583,E,5,16,0.76,121.0818,M,43.9749,M,3.1,0417*7E
$GNGST,080927.10,0.729,0.161,0.017,160.220,0.151,0.057,0.711*47
$GPGGA,080927.20,5100.7535489,N,01347.4883585,E,5,16,0.76,121.0970,M,43.9749,M,3.2,0417*76
$GNGST,080927.20,0.731,0.161,0.017,160.220,0.152,0.057,0.713*4C
$GPGGA,080927.30,5100.7535492,N,01347.4883597,E,5,16,0.76,121.0890,M,43.9749,M,2.3,0417*71
$GNGST,080927.30,0.713,0.157,0.016,160.220,0.148,0.055,0.695*4F
$GPGGA,080927.40,5100.7535610,N,01347.4883562,E,5,16,0.76,120.9723,M,43.9749,M,1.4,0417*7F
$GNGST,080927.40,0.692,0.152,0.016,160.235,0.144,0.054,0.674*43
$GPGGA,080927.50,5100.7535529,N,01347.4883594,E,5,16,0.76,121.1028,M,43.9749,M,1.5,0417*7A
$GNGST,080927.50,0.691,0.152,0.016,160.218,0.143,0.054,0.674*49
$GPGGA,080927.60,5100.7535697,N,01347.4883512,E,5,16,0.76,120.9814,M,43.9749,M,1.6,0417*7C
$GNGST,080927.60,0.691,0.152,0.016,160.232,0.143,0.054,0.674*42
$GPGGA,080927.70,5100.7535575,N,01347.4883505,E,5,16,0.76,121.1191,M,43.9749,M,1.7,0417*78
$GNGST,080927.70,0.691,0.152,0.016,160.220,0.143,0.054,0.674*40
$GPGGA,080927.80,5100.7535562,N,01347.4883507,E,5,16,0.76,121.1488,M,43.9749,M,1.8,0417*71
$GNGST,080927.80,0.693,0.153,0.016,160.220,0.144,0.054,0.676*49
$GPGGA,080927.90,5100.7535574,N,01347.4883491,E,5,16,0.76,121.1400,M,43.9749,M,1.9,0417*78
$GNGST,080927.90,0.695,0.153,0.016,160.220,0.144,0.054,0.678*40
$GPGGA,080928.00,5100.7535576,N,01347.4883524,E,5,16,0.76,121.1432,M,43.9749,M,2.0,0417*78
$GNGST,080928.00,0.697,0.153,0.016,160.220,0.145,0.054,0.680*42
$GPGGA,080928.10,5100.7535579,N,01347.4883501,E,5,16,0.76,121.1280,M,43.9749,M,2.1,0417*7F
$GNGST,080928.10,0.699,0.154,0.016,160.220,0.145,0.054,0.682*48
$GPGGA,080928.20,5100.7535584,N,01347.4883516,E,5,16,0.76,121.1209,M,43.9749,M,1.2,0417*79
$GNGST,080928.20,0.680,0.150,0.016,160.220,0.141,0.053,0.663*4B
$GPGGA,080928.30,5100.7535789,N,01347.4883374,E,5,16,0.76,120.9663,M,43.9749,M,1.3,0417*75
$GNGST,080928.30,0.680,0.150,0.015,160.258,0.141,0.053,0.663*46
$GPGGA,080928.40,5100.7535678,N,01347.4883354,E,5,16,0.76,121.1696,M,43.9749,M,1.4,0417*7B
$GNGST,080928.40,0.680,0.150,0.015,160.245,0.141,0.053,0.663*4D
$GPGGA,080928.50,5100.7535689,N,01347.4883375,E,5,16,0.76,121.1686,M,43.9749,M,1.5,0417*77
$GNGST,080928.50,0.682,0.150,0.015,160.245,0.141,0.053,0.665*48
$GPGGA,080928.60,5100.7535673,N,01347.4883378,E,5,16,0.76,121.1695,M,43.9749,M,0.6,0417*7C
$GNGST,080928.60,0.663,0.146,0.015,160.245,0.137,0.051,0.647*40
$GPGGA,080928.70,5100.7535861,N,01347.4883254,E,5,16,0.76,121.0409,M,43.9749,M,0.7,0417*78
$GNGST,080928.70,0.663,0.146,0.015,160.272,0.137,0.051,0.647*45
$GPGGA,080928.80,5100.7535744,N,01347.4883272,E,5,16,0.76,121.2118,M,43.9749,M,0.8,0417*73
$GNGST,080928.80,0.663,0.146,0.015,160.259,0.137,0.051,0.647*43
$GPGGA,080928.90,5100.7535746,N,01347.4883268,E,5,16,0.76,121.1939,M,43.9749,M,0.9,0417*72
$GNGST,080928.90,0.665,0.146,0.015,160.258,0.138,0.051,0.649*44
$GPGGA,080929.00,5100.7535744,N,01347.4883271,E,5,16,0.76,121.2003,M,43.9749,M,1.0,0417*7B
$GNGST,080929.00,0.667,0.147,0.015,160.258,0.138,0.052,0.651*45
$GPGGA,080929.10,5100.7535749,N,01347.4883281,E,5,16,0.76,121.1976,M,43.9749,M,1.1,0417*71
$GNGST,080929.10,0.670,0.147,0.015,160.258,0.139,0.052,0.653*41
$GPGGA,080929.20,5100.7535740,N,01347.4883270,E,5,16,0.76,121.2074,M,43.9749,M,1.2,0417*7E
$GNGST,080929.20,0.672,0.148,0.015,160.258,0.139,0.052,0.655*49
$GPGGA,080929.30,5100.7535731,N,01347.4883244,E,5,16,0.76,121.1903,M,43.9749,M,1.3,0417*75
$GNGST,080929.30,0.674,0.148,0.015,160.258,0.140,0.052,0.657*42
$GPGGA,080929.40,5100.7535739,N,01347.4883272,E,5,16,0.76,121.1841,M,43.9749,M,1.4,0417*7F
$GNGST,080929.40,0.676,0.149,0.015,160.258,0.140,0.052,0.659*48
$GPGGA,080929.50,5100.7535737,N,01347.4883245,E,5,16,0.76,121.1946,M,43.9749,M,1.5,0417*73
$GNGST,080929.50,0.678,0.149,0.015,160.258,0.140,0.052,0.661*4C
$GPGGA,080929.60,5100.7535742,N,01347.4883252,E,5,16,0.76,121.1900,M,43.9749,M,0.6,0417*74
$GNGST,080929.60,0.659,0.145,0.015,160.259,0.137,0.051,0.643*42
$GPGGA,080929.70,5100.7535741,N,01347.4883250,E,5,16,0.76,121.1905,M,43.9749,M,0.7,0417*70
$GNGST,080929.70,0.661,0.145,0.015,160.259,0.137,0.051,0.645*4E
$GPGGA,080929.80,5100.7535745,N,01347.4883186,E,5,16,0.76,121.2860,M,43.9749,M,0.8,0417*7D
$GNGST,080929.80,0.660,0.145,0.015,160.288,0.136,0.051,0.643*4B
$GPGGA,080929.90,5100.7535748,N,01347.4883169,E,5,16,0.76,121.2827,M,43.9749,M,0.9,0417*72
$GNGST,080929.90,0.662,0.145,0.015,160.288,0.137,0.051,0.645*4F
$GPGGA,080930.00,5100.7535752,N,01347.4883178,E,5,16,0.76,121.2822,M,43.9749,M,1.0,0417*75
$GNGST,080930.00,0.664,0.146,0.015,160.287,0.137,0.051,0.648*49
$GPGGA,080930.10,5100.7535747,N,01347.4883192,E,5,16,0.76,121.2896,M,43.9749,M,1.1,0417*7A
$GNGST,080930.10,0.666,0.146,0.015,160.287,0.138,0.051,0.650*4C
$GPGGA,080930.20,5100.7535755,N,01347.4883187,E,5,16,0.76,121.2796,M,43.9749,M,1.2,0417*72
$GNGST,080930.20,0.668,0.147,0.015,160.287,0.138,0.051,0.652*42
$GPGGA,080930.30,5100.7535747,N,01347.4883174,E,5,16,0.76,121.2792,M,43.9749,M,1.3,0417*79
$GNGST,080930.30,0.670,0.147,0.015,160.287,0.139,0.052,0.654*4E
$GPGGA,080930.40,5100.7535756,N,01347.4883198,E,5,16,0.76,121.2911,M,43.9749,M,1.4,0417*7E
$GNGST,080930.40,0.672,0.148,0.015,160.287,0.139,0.052,0.656*46
$GPGGA,080930.50,5100.7535743,N,01347.4883201,E,5,16,0.76,121.3118,M,43.9749,M,1.5,0417*79
$GNGST,080930.50,0.674,0.148,0.015,160.287,0.139,0.052,0.658*4F
$GPGGA,080930.60,5100.7535751,N,01347.4883200,E,5,16,0.76,121.2948,M,43.9749,M,1.6,0417*77
$GNGST,080930.60,0.676,0.148,0.015,160.287,0.140,0.052,0.660*4B
$GPGGA,080930.70,5100.7535754,N,01347.4883220,E,5,16,0.76,121.2940,M,43.9749,M,1.7,0417*78
$GNGST,080930.70,0.678,0.149,0.015,160.287,0.140,0.052,0.662*47
$GPGGA,080930.80,5100.7535742,N,01347.4883206,E,5,16,0.76,121.2960,M,43.9749,M,1.8,0417*79
$GNGST,080930.80,0.680,0.149,0.015,160.287,0.141,0.052,0.664*48
$GPGGA,080930.90,5100.7535730,N,01347.4883206,E,5,16,0.76,121.3007,M,43.9749,M,1.9,0417*75
$GNGST,080930.90,0.682,0.150,0.015,160.287,0.141,0.053,0.665*43
$GPGGA,080931.00,5100.7535728,N,01347.4883172,E,5,16,0.76,121.2885,M,43.9749,M,2.0,0417*7D
$GNGST,080931.00,0.684,0.150,0.015,160.286,0.142,0.053,0.667*4D
$GPGGA,080931.10,5100.7535732,N,01347.4883194,E,5,16,0.76,121.2927,M,43.9749,M,2.1,0417*77
$GNGST,080931.10,0.686,0.151,0.015,160.286,0.142,0.053,0.669*41
$GPGGA,080931.20,5100.7535747,N,01347.4883224,E,5,16,0.76,121.2890,M,43.9749,M,2.2,0417*70
$GNGST,080931.20,0.688,0.151,0.016,160.286,0.142,0.053,0.671*46
$GPGGA,080931.30,5100.7535750,N,01347.4883184,E,5,16,0.76,121.2726,M,43.9749,M,1.3,0417*7E
$GNGST,080931.30,0.670,0.147,0.015,160.287,0.139,0.052,0.654*4F
$GPGGA,080931.40,5100.7535826,N,01347.4883076,E,5,16,0.76,121.2272,M,43.9749,M,1.4,0417*78
$GNGST,080931.40,0.670,0.147,0.015,160.307,0.138,0.051,0.654*43
$GPGGA,080931.50,5100.7535702,N,01347.4883135,E,5,16,0.76,121.3842,M,43.9749,M,1.5,0417*7F
$GNGST,080931.50,0.670,0.147,0.015,160.298,0.138,0.051,0.654*45
$GPGGA,080931.60,5100.7535708,N,01347.4883143,E,5,16,0.76,121.3720,M,43.9749,M,0.6,0417*7E
$GNGST,080931.60,0.652,0.143,0.014,160.298,0.135,0.050,0.636*4B
$GPGGA,080931.70,5100.7535801,N,01347.4882981,E,5,16,0.76,121.3576,M,43.9749,M,0.7,0417*7E
$GNGST,080931.70,0.652,0.143,0.014,160.342,0.135,0.050,0.636*4C
$GPGGA,080931.80,5100.7535655,N,01347.4883075,E,5,16,0.76,121.5400,M,43.9749,M,0.8,0417*74
$GNGST,080931.80,0.653,0.143,0.014,160.340,0.135,0.050,0.637*41
$GPGGA,080931.90,5100.7535634,N,01347.4883091,E,5,16,0.76,121.5693,M,43.9749,M,0.9,0417*71
$GNGST,080931.90,0.655,0.143,0.014,160.340,0.135,0.050,0.639*48
$GPGGA,080932.00,5100.7535649,N,01347.4883103,E,5,16,0.76,121.5381,M,43.9749,M,1.0,0417*75
$GNGST,080932.00,0.657,0.144,0.014,160.340,0.135,0.050,0.641*48
$GPGGA,080932.10,5100.7535654,N,01347.4883135,E,5,16,0.76,121.5421,M,43.9749,M,1.1,0417*71
$GNGST,080932.10,0.659,0.144,0.014,160.340,0.136,0.050,0.643*46
$GPGGA,080932.20,5100.7535653,N,01347.4883130,E,5,16,0.76,121.5605,M,43.9749,M,1.2,0417*77
$GNGST,080932.20,0.661,0.145,0.014,160.340,0.136,0.051,0.645*48
$GPGGA,080932.30,5100.7535647,N,01347.4883107,E,5,16,0.76,121.5772,M,43.9749,M,1.3,0417*77
$GNGST,080932.30,0.663,0.145,0.015,160.340,0.137,0.051,0.647*49
$GPGGA,080932.40,5100.7535668,N,01347.4883139,E,5,16,0.76,121.5407,M,43.9749,M,1.4,0417*76
$GNGST,080932.40,0.665,0.146,0.015,160.340,0.137,0.051,0.649*45
$GPGGA,080932.50,5100.7535652,N,01347.4883115,E,5,16,0.76,121.5509,M,43.9749,M,1.5,0417*7E
$GNGST,080932.50,0.668,0.146,0.015,160.340,0.138,0.051,0.651*4F
$GPGGA,080932.60,5100.7535657,N,01347.4883120,E,5,16,0.76,121.5567,M,43.9749,M,0.6,0417*74
$GNGST,080932.60,0.649,0.142,0.014,160.340,0.134,0.050,0.633*43
$GPGGA,080932.70,5100.7535731,N,01347.4883008,E,5,16,0.76,121.5397,M,43.9749,M,0.7,0417*77
$GNGST,080932.70,0.649,0.142,0.014,160.359,0.134,0.050,0.634*4D
$GPGGA,080932.80,5100.7535579,N,01347.4883045,E,5,16,0.76,121.7133,M,43.9749,M,0.8,0417*7E
$GNGST,080932.80,0.650,0.142,0.014,160.355,0.134,0.050,0.634*46
$GPGGA,080932.90,5100.7535580,N,01347.4883067,E,5,16,0.76,121.7213,M,43.9749,M,0.9,0417*79
$GNGST,080932.90,0.652,0.142,0.014,160.355,0.134,0.050,0.636*47
$GPGGA,080933.00,5100.7535574,N,01347.4883041,E,5,16,0.76,121.7220,M,43.9749,M,1.0,0417*76
$GNGST,080933.00,0.654,0.143,0.014,160.355,0.135,0.050,0.638*47
$GPGGA,080933.10,5100.7535582,N,01347.4883079,E,5,16,0.76,121.7156,M,43.9749,M,1.1,0417*76
$GNGST,080933.10,0.656,0.143,0.014,160.355,0.135,0.050,0.640*4B
$GPGGA,080933.20,5100.7535580,N,01347.4883050,E,5,16,0.76,121.7185,M,43.9749,M,1.2,0417*71
$GNGST,080933.20,0.658,0.144,0.014,160.355,0.135,0.050,0.642*43
$GPGGA,080933.30,5100.7535588,N,01347.4883033,E,5,16,0.76,121.6992,M,43.9749,M,1.3,0417*73
$GNGST,080933.30,0.660,0.144,0.014,160.355,0.136,0.050,0.644*4C
$GPGGA,080933.40,5100.7535583,N,01347.4883047,E,5,16,0.76,121.7150,M,43.9749,M,1.4,0417*7C
$GNGST,080933.40,0.662,0.145,0.014,160.355,0.136,0.050,0.646*4A
$GPGGA,080933.50,5100.7535574,N,01347.4883073,E,5,16,0.76,121.7255,M,43.9749,M,1.5,0417*75
$GNGST,080933.50,0.664,0.145,0.015,160.355,0.137,0.051,0.648*42
$GPGGA,080933.60,5100.7535575,N,01347.4883045,E,5,16,0.76,121.7184,M,43.9749,M,1.6,0417*7E
$GNGST,080933.60,0.666,0.145,0.015,160.355,0.137,0.051,0.650*4A
$GPGGA,080933.70,5100.7535584,N,01347.4883054,E,5,16,0.76,121.6998,M,43.9749,M,1.7,0417*74
$GNGST,080933.70,0.668,0.146,0.015,160.355,0.137,0.051,0.652*44
$GPGGA,080933.80,5100.7535593,N,01347.4883031,E,5,16,0.76,121.6826,M,43.9749,M,0.8,0417*74
$GNGST,080933.80,0.650,0.142,0.014,160.355,0.134,0.050,0.634*47
$GPGGA,080933.90,5100.7535639,N,01347.4882960,E,5,16,0.76,121.6979,M,43.9749,M,0.9,0417*70
$GNGST,080933.90,0.651,0.142,0.014,160.406,0.134,0.049,0.635*4F
$GPGGA,080934.00,5100.7535507,N,01347.4883049,E,5,16,0.76,121.8476,M,43.9749,M,1.0,0417*77
$GNGST,080934.00,0.651,0.142,0.014,160.400,0.134,0.049,0.635*47
$GPGGA,080934.10,5100.7535513,N,01347.4883051,E,5,16,0.76,121.8394,M,43.9749,M,1.1,0417*70
$GNGST,080934.10,0.653,0.142,0.014,160.400,0.134,0.050,0.637*4E
$GPGGA,080934.20,5100.7535527,N,01347.4883032,E,5,16,0.76,121.8217,M,43.9749,M,1.2,0417*78
$GNGST,080934.20,0.655,0.143,0.014,160.400,0.135,0.050,0.639*45
$GPGGA,080934.30,5100.7535515,N,01347.4882997,E,5,16,0.76,121.8083,M,43.9749,M,1.3,0417*71
$GNGST,080934.30,0.657,0.143,0.014,160.400,0.135,0.050,0.641*49
$GPGGA,080934.40,5100.7535504,N,01347.4883030,E,5,16,0.76,121.8271,M,43.9749,M,1.4,0417*7B
$GNGST,080934.40,0.659,0.144,0.014,160.399,0.135,0.050,0.643*42
$GPGGA,080934.50,5100.7535523,N,01347.4883051,E,5,16,0.76,121.8265,M,43.9749,M,1.5,0417*7C
$GNGST,080934.50,0.661,0.144,0.014,160.399,0.136,0.050,0.645*4D
$GPGGA,080934.60,5100.7535521,N,01347.4883049,E,5,16,0.76,121.8287,M,43.9749,M,1.6,0417*7B
$GNGST,080934.60,0.663,0.145,0.014,160.399,0.136,0.050,0.647*4F
$GPGGA,080934.70,5100.7535519,N,01347.4883015,E,5,16,0.76,121.8288,M,43.9749,M,0.7,0417*77
$GNGST,080934.70,0.645,0.141,0.014,160.400,0.133,0.049,0.629*4C
$GPGGA,080934.80,5100.7535573,N,01347.4882965,E,5,16,0.75,121.8130,M,43.9749,M,0.8,0417*77
$GNGST,080934.80,0.645,0.141,0.014,160.419,0.132,0.049,0.630*42
$GPGGA,080934.90,5100.7535458,N,01347.4883018,E,5,16,0.75,121.9426,M,43.9749,M,0.9,0417*7E
$GNGST,080934.90,0.646,0.141,0.014,160.410,0.132,0.049,0.630*49
$GPGGA,080935.00,5100.7535447,N,01347.4883019,E,5,16,0.75,121.9573,M,43.9749,M,1.0,0417*70
$GNGST,080935.00,0.648,0.141,0.014,160.410,0.133,0.049,0.632*4C
$GPGGA,080935.10,5100.7535451,N,01347.4883035,E,5,16,0.75,121.9565,M,43.9749,M,1.1,0417*7E
$GNGST,080935.10,0.650,0.141,0.014,160.410,0.133,0.049,0.634*42
$GPGGA,080935.20,5100.7535446,N,01347.4882995,E,5,16,0.75,121.9462,M,43.9749,M,1.2,0417*7C
$GNGST,080935.20,0.652,0.142,0.014,160.410,0.134,0.049,0.636*45
$GPGGA,080935.30,5100.7535453,N,01347.4883013,E,5,16,0.75,121.9481,M,43.9749,M,1.3,0417*73
$GNGST,080935.30,0.654,0.142,0.014,160.410,0.134,0.049,0.638*4C
$GPGGA,080935.40,5100.7535456,N,01347.4883009,E,5,16,0.75,121.9560,M,43.9749,M,1.4,0417*73
$GNGST,080935.40,0.656,0.143,0.014,160.410,0.135,0.050,0.640*4E
$GPGGA,080935.50,5100.7535458,N,01347.4883021,E,5,16,0.75,121.9428,M,43.9749,M,1.5,0417*7A
$GNGST,080935.50,0.658,0.143,0.014,160.410,0.135,0.050,0.642*43
$GPGGA,080935.60,5100.7535445,N,01347.4883033,E,5,16,0.75,121.9775,M,43.9749,M,0.6,0417*7F
$GNGST,080935.60,0.640,0.139,0.014,160.410,0.131,0.048,0.624*49
$GPGGA,080935.70,5100.7535445,N,01347.4883005,E,5,16,0.75,121.9578,M,43.9749,M,0.7,0417*75
$GNGST,080935.70,0.642,0.140,0.014,160.410,0.132,0.049,0.626*44
$GPGGA,080935.80,5100.7535507,N,01347.4882944,E,5,16,0.75,121.9452,M,43.9749,M,0.8,0417*76
$GNGST,080935.80,0.642,0.140,0.014,160.442,0.132,0.049,0.627*4D
$GPGGA,080935.90,5100.7535404,N,01347.4883008,E,5,16,0.75,122.0742,M,43.9749,M,0.9,0417*7C
$GNGST,080935.90,0.643,0.140,0.014,160.431,0.132,0.049,0.627*49
$GPGGA,080936.00,5100.7535403,N,01347.4882987,E,5,16,0.75,122.0666,M,43.9749,M,1.0,0417*71
$GNGST,080936.00,0.645,0.140,0.014,160.431,0.132,0.049,0.629*4B
$GPGGA,080936.10,5100.7535397,N,01347.4882986,E,5,16,0.75,122.0687,M,43.9749,M,1.1,0417*75
$GNGST,080936.10,0.647,0.141,0.014,160.431,0.133,0.049,0.631*41
$GPGGA,080936.20,5100.7535397,N,01347.4883011,E,5,16,0.75,122.0728,M,43.9749,M,1.2,0417*77
$GNGST,080936.20,0.649,0.141,0.014,160.431,0.133,0.049,0.633*4E
$GPGGA,080936.30,5100.7535395,N,01347.4882985,E,5,16,0.75,122.0766,M,43.9749,M,1.3,0417*7A
$GNGST,080936.30,0.651,0.141,0.014,160.431,0.133,0.049,0.635*40
$GPGGA,080936.40,5100.7535401,N,01347.4882991,E,5,16,0.75,122.0574,M,43.9749,M,1.4,0417*74
$GNGST,080936.40,0.653,0.142,0.014,160.431,0.134,0.049,0.637*43
$GPGGA,080936.50,5100.7535397,N,01347.4882986,E,5,16,0.75,122.0590,M,43.9749,M,1.5,0417*70
$GNGST,080936.50,0.655,0.142,0.014,160.431,0.134,0.049,0.639*4A
$GPGGA,080936.60,5100.7535413,N,01347.4883028,E,5,16,0.75,122.0654,M,43.9749,M,0.6,0417*7D
$GNGST,080936.60,0.637,0.138,0.014,160.432,0.130,0.048,0.621*4F
$GPGGA,080936.70,5100.7535533,N,01347.4882903,E,5,16,0.75,122.0037,M,43.9749,M,0.7,0417*7C
$GNGST,080936.70,0.637,0.138,0.013,160.445,0.130,0.048,0.622*4A
$GPGGA,080936.80,5100.7535411,N,01347.4882934,E,5,16,0.75,122.1720,M,43.9749,M,0.8,0417*79
$GNGST,080936.80,0.637,0.138,0.013,160.433,0.130,0.048,0.622*44
$GPGGA,080936.90,5100.7535396,N,01347.4882924,E,5,16,0.75,122.1818,M,43.9749,M,0.9,0417*74
$GNGST,080936.90,0.639,0.139,0.013,160.433,0.131,0.048,0.624*4D
$GPGGA,080937.00,5100.7535403,N,01347.4882952,E,5,16,0.75,122.1822,M,43.9749,M,1.0,0417*77
$GNGST,080937.00,0.641,0.139,0.013,160.433,0.131,0.048,0.626*48
$GPGGA,080937.10,5100.7535405,N,01347.4882957,E,5,16,0.75,122.1970,M,43.9749,M,1.1,0417*72
$GNGST,080937.10,0.643,0.140,0.014,160.433,0.132,0.048,0.628*4F
$GPGGA,080937.20,5100.7535407,N,01347.4882934,E,5,16,0.75,122.1883,M,43.9749,M,1.2,0417*78
$GNGST,080937.20,0.645,0.140,0.014,160.433,0.132,0.049,0.630*42
$GPGGA,080937.30,5100.7535388,N,01347.4882909,E,5,16,0.75,122.1895,M,43.9749,M,1.3,0417*71
$GNGST,080937.30,0.647,0.141,0.014,160.433,0.132,0.049,0.632*42
$GPGGA,080937.40,5100.7535396,N,01347.4882947,E,5,16,0.75,122.1899,M,43.9749,M,1.4,0417*78
$GNGST,080937.40,0.649,0.141,0.014,160.433,0.133,0.049,0.634*4C
$GPGGA,080937.50,5100.7535410,N,01347.4882942,E,5,16,0.75,122.1762,M,43.9749,M,1.5,0417*7F
$GNGST,080937.50,0.651,0.141,0.014,160.433,0.133,0.049,0.636*46
$GPGGA,080937.60,5100.7535405,N,01347.4882957,E,5,16,0.75,122.1952,M,43.9749,M,0.6,0417*73
$GNGST,080937.60,0.633,0.137,0.013,160.433,0.130,0.048,0.618*49
$GPGGA,080937.70,5100.7535575,N,01347.4882877,E,5,16,0.75,122.0538,M,43.9749,M,0.7,0417*77
$GNGST,080937.70,0.634,0.138,0.014,160.446,0.130,0.048,0.618*45
$GPGGA,080937.80,5100.7535464,N,01347.4882875,E,5,16,0.75,122.1982,M,43.9749,M,0.8,0417*78
$GNGST,080937.80,0.634,0.138,0.013,160.427,0.130,0.048,0.618*4A
$GPGGA,080937.90,5100.7535456,N,01347.4882877,E,5,16,0.75,122.2138,M,43.9749,M,0.9,0417*71
$GNGST,080937.90,0.636,0.138,0.014,160.427,0.130,0.048,0.620*45
$GPGGA,080938.00,5100.7535475,N,01347.4882896,E,5,16,0.75,122.2060,M,43.9749,M,1.0,0417*7D
$GNGST,080938.00,0.638,0.138,0.014,160.427,0.130,0.048,0.622*4F
$GPGGA,080938.10,5100.7535460,N,01347.4882900,E,5,16,0.75,122.2183,M,43.9749,M,1.1,0417*7B
$GNGST,080938.10,0.640,0.139,0.014,160.427,0.131,0.048,0.624*47
$GPGGA,080938.20,5100.7535466,N,01347.4882893,E,5,16,0.75,122.2036,M,43.9749,M,1.2,0417*79
$GNGST,080938.20,0.642,0.139,0.014,160.427,0.131,0.048,0.626*44
$GPGGA,080938.30,5100.7535461,N,01347.4882893,E,5,16,0.75,122.2173,M,43.9749,M,1.3,0417*7E
$GNGST,080938.30,0.644,0.140,0.014,160.427,0.132,0.049,0.628*41
$GPGGA,080938.40,5100.7535461,N,01347.4882893,E,5,16,0.75,122.2205,M,43.9749,M,1.4,0417*7C
$GNGST,080938.40,0.646,0.140,0.014,160.427,0.132,0.049,0.630*4D
$GPGGA,080938.50,5100.7535459,N,01347.4882885,E,5,16,0.75,122.2229,M,43.9749,M,1.5,0417*7E
$GNGST,080938.50,0.648,0.141,0.014,160.427,0.132,0.049,0.632*41
$GPGGA,080938.60,5100.7535460,N,01347.4882866,E,5,16,0.75,122.2089,M,43.9749,M,0.6,0417*70
$GNGST,080938.60,0.630,0.137,0.013,160.427,0.129,0.047,0.614*4B
$GPGGA,080938.70,5100.7535633,N,01347.4882823,E,5,16,0.75,122.0784,M,43.9749,M,0.7,0417*7D
$GNGST,080938.70,0.630,0.137,0.013,160.441,0.129,0.047,0.615*4B
$GPGGA,080938.80,5100.7535521,N,01347.4882806,E,5,16,0.75,122.2189,M,43.9749,M,0.8,0417*73
$GNGST,080938.80,0.630,0.137,0.013,160.420,0.129,0.047,0.615*43
$GPGGA,080938.90,5100.7535543,N,01347.4882847,E,5,16,0.75,122.2204,M,43.9749,M,0.9,0417*74
$GNGST,080938.90,0.632,0.137,0.013,160.420,0.129,0.048,0.617*4D
$GPGGA,080939.00,5100.7535528,N,01347.4882838,E,5,16,0.75,122.2362,M,43.9749,M,1.0,0417*70
$GNGST,080939.00,0.634,0.137,0.013,160.420,0.130,0.048,0.619*45
$GPGGA,080939.10,5100.7535517,N,01347.4882813,E,5,16,0.75,122.2358,M,43.9749,M,1.1,0417*7C
$GNGST,080939.10,0.636,0.138,0.013,160.420,0.130,0.048,0.621*42
$GPGGA,080939.20,5100.7535531,N,01347.4882803,E,5,16,0.75,122.2097,M,43.9749,M,1.2,0417*79
$GNGST,080939.20,0.638,0.138,0.013,160.420,0.130,0.048,0.622*4C
$GPGGA,080939.30,5100.7535519,N,01347.4882822,E,5,16,0.75,122.2413,M,43.9749,M,1.3,0417*78
$GNGST,080939.30,0.640,0.139,0.013,160.420,0.131,0.048,0.624*44
$GPGGA,080939.40,5100.7535517,N,01347.4882826,E,5,16,0.75,122.2311,M,43.9749,M,1.4,0417*77
$GNGST,080939.40,0.642,0.139,0.013,160.420,0.131,0.048,0.626*43
$GPGGA,080939.50,5100.7535516,N,01347.4882813,E,5,16,0.75,122.2248,M,43.9749,M,1.5,0417*7D
$GNGST,080939.50,0.644,0.140,0.014,160.420,0.132,0.048,0.628*40
$GPGGA,080939.60,5100.7535508,N,01347.4882840,E,5,16,0.75,122.2434,M,43.9749,M,0.6,0417*78
$GNGST,080939.60,0.626,0.136,0.013,160.420,0.128,0.047,0.611*4F
$GPGGA,080939.70,5100.7535666,N,01347.4882755,E,5,16,0.75,122.1255,M,43.9749,M,0.7,0417*7A
$GNGST,080939.70,0.626,0.136,0.013,160.440,0.128,0.047,0.611*48
$GPGGA,080939.80,5100.7535590,N,01347.4882792,E,5,16,0.75,122.2315,M,43.9749,M,0.8,0417*7D
$GNGST,080939.80,0.626,0.136,0.013,160.419,0.128,0.047,0.611*4B
$GPGGA,080939.90,5100.7535591,N,01347.4882772,E,5,16,0.75,122.2323,M,43.9749,M,0.9,0417*77
$GNGST,080939.90,0.628,0.136,0.013,160.419,0.128,0.047,0.613*46
$GPGGA,080940.00,5100.7535581,N,01347.4882777,E,5,16,0.75,122.2450,M,43.9749,M,1.0,0417*7F
$GNGST,080940.00,0.630,0.137,0.013,160.419,0.129,0.047,0.615*4E
$GPGGA,080940.10,5100.7535579,N,01347.4882781,E,5,16,0.75,122.2303,M,43.9749,M,1.1,0417*70
$GNGST,080940.10,0.632,0.137,0.013,160.419,0.129,0.048,0.617*40
$GPGGA,080940.20,5100.7535583,N,01347.4882787,E,5,16,0.75,122.2450,M,43.9749,M,1.2,0417*72
$GNGST,080940.20,0.634,0.137,0.013,160.419,0.130,0.048,0.619*43
$GPGGA,080940.30,5100.7535579,N,01347.4882777,E,5,16,0.75,122.2357,M,43.9749,M,1.3,0417*78
$GNGST,080940.30,0.636,0.138,0.013,160.419,0.130,0.048,0.621*44
$GPGGA,080940.40,5100.7535583,N,01347.4882768,E,5,16,0.75,122.2312,M,43.9749,M,1.4,0417*72
$GNGST,080940.40,0.638,0.138,0.013,160.419,0.130,0.048,0.623*4F
$GPGGA,080940.50,5100.7535577,N,01347.4882789,E,5,16,0.75,122.2418,M,43.9749,M,1.5,0417*7B
$GNGST,080940.50,0.640,0.139,0.013,160.419,0.131,0.048,0.625*47
$GPGGA,080940.60,5100.7535586,N,01347.4882798,E,5,16,0.75,122.2368,M,43.9749,M,1.6,0417*75
$GNGST,080940.60,0.642,0.139,0.013,160.419,0.131,0.048,0.626*45
$GPGGA,080940.70,5100.7535566,N,01347.4882776,E,5,16,0.75,122.2509,M,43.9749,M,1.7,0417*7A
$GNGST,080940.70,0.644,0.140,0.013,160.419,0.132,0.048,0.628*41
$GPGGA,080940.80,5100.7535578,N,01347.4882779,E,5,16,0.75,122.2508,M,43.9749,M,1.8,0417*7B
$GNGST,080940.80,0.646,0.140,0.013,160.419,0.132,0.049,0.630*44
$GPGGA,080940.90,5100.7535577,N,01347.4882800,E,5,16,0.75,122.2504,M,43.9749,M,1.9,0417*79
$GNGST,080940.90,0.648,0.140,0.013,160.419,0.132,0.049,0.632*49
$GPGGA,080941.00,5100.7535573,N,01347.4882819,E,5,16,0.75,122.2718,M,43.9749,M,2.0,0417*78
$GNGST,080941.00,0.649,0.141,0.013,160.418,0.133,0.049,0.634*47
$GPGGA,080941.10,5100.7535589,N,01347.4882787,E,5,16,0.75,122.2356,M,43.9749,M,2.1,0417*7B
$GNGST,080941.10,0.651,0.141,0.013,160.418,0.133,0.049,0.636*4D
$GPGGA,080941.20,5100.7535592,N,01347.4882780,E,5,16,0.75,122.2290,M,43.9749,M,2.2,0417*7D
$GNGST,080941.20,0.653,0.142,0.014,160.418,0.134,0.049,0.638*41
$GPGGA,080941.30,5100.7535583,N,01347.4882796,E,5,16,0.75,122.2581,M,43.9749,M,2.3,0417*7D
$GNGST,080941.30,0.655,0.142,0.014,160.418,0.134,0.049,0.639*47
$GPGGA,080941.40,5100.7535595,N,01347.4882795,E,5,16,0.75,122.2346,M,43.9749,M,2.4,0417*74
$GNGST,080941.40,0.657,0.142,0.014,160.418,0.134,0.049,0.641*4D
$GPGGA,080941.50,5100.7535581,N,01347.4882795,E,5,16,0.75,122.2722,M,43.9749,M,2.5,0417*77
$GNGST,080941.50,0.659,0.143,0.014,160.418,0.135,0.050,0.643*48
$GPGGA,080941.60,5100.7535581,N,01347.4882799,E,5,16,0.75,122.2517,M,43.9749,M,2.6,0417*7F
$GNGST,080941.60,0.661,0.143,0.014,160.418,0.135,0.050,0.645*46
$GPGGA,080941.70,5100.7535586,N,01347.4882800,E,5,16,0.75,122.2558,M,43.9749,M,2.7,0417*7C
$GNGST,080941.70,0.663,0.144,0.014,160.418,0.135,0.050,0.647*40
$GPGGA,080941.80,5100.7535582,N,01347.4882784,E,5,16,0.75,122.2480,M,43.9749,M,2.8,0417*7F
$GNGST,080941.80,0.665,0.144,0.014,160.418,0.136,0.050,0.649*44
$GPGGA,080941.90,5100.7535596,N,01347.4882811,E,5,16,0.75,122.2412,M,43.9749,M,2.9,0417*72
$GNGST,080941.90,0.666,0.145,0.014,160.418,0.136,0.050,0.650*4F
$GPGGA,080942.00,5100.7535590,N,01347.4882801,E,5,16,0.75,122.2492,M,43.9749,M,3.0,0417*7F
$GNGST,080942.00,0.668,0.145,0.014,160.418,0.137,0.050,0.652*48
$GPGGA,080942.10,5100.7535580,N,01347.4882798,E,5,16,0.75,122.2584,M,43.9749,M,3.1,0417*77
$GNGST,080942.10,0.670,0.145,0.014,160.418,0.137,0.050,0.654*46
$GPGGA,080942.20,5100.7535599,N,01347.4882780,E,5,16,0.75,122.2253,M,43.9749,M,3.2,0417*7B
$GNGST,080942.20,0.672,0.146,0.014,160.418,0.137,0.051,0.656*47
$GPGGA,080942.30,5100.7535590,N,01347.4882776,E,5,16,0.75,122.2442,M,43.9749,M,3.3,0417*7D
$GNGST,080942.30,0.674,0.146,0.014,160.418,0.138,0.051,0.658*41
$GPGGA,080942.40,5100.7535568,N,01347.4882774,E,5,16,0.75,122.2499,M,43.9749,M,2.4,0417*7F
$GNGST,080942.40,0.657,0.142,0.014,160.418,0.134,0.049,0.641*4E
$GPGGA,080942.50,5100.7535748,N,01347.4882711,E,5,16,0.75,122.1121,M,43.9749,M,2.5,0417*79
$GNGST,080942.50,0.657,0.142,0.014,160.439,0.134,0.049,0.641*4C
$GPGGA,080942.60,5100.7535650,N,01347.4882757,E,5,16,0.75,122.2708,M,43.9749,M,1.6,0417*7E
$GNGST,080942.60,0.638,0.138,0.013,160.418,0.130,0.048,0.623*4E
$GPGGA,080942.70,5100.7535637,N,01347.4882744,E,5,16,0.75,122.2744,M,43.9749,M,1.7,0417*75
$GNGST,080942.70,0.640,0.139,0.013,160.418,0.131,0.048,0.625*46
$GPGGA,080942.80,5100.7535705,N,01347.4882698,E,5,16,0.75,122.2549,M,43.9749,M,1.8,0417*7A
$GNGST,080942.80,0.638,0.138,0.013,160.410,0.130,0.048,0.623*48
$GPGGA,080942.90,5100.7535700,N,01347.4882723,E,5,16,0.75,122.2635,M,43.9749,M,1.9,0417*76
$GNGST,080942.90,0.640,0.139,0.013,160.410,0.131,0.048,0.625*40
$GPGGA,080943.00,5100.7535705,N,01347.4882675,E,5,16,0.75,122.2379,M,43.9749,M,2.0,0417*7E
$GNGST,080943.00,0.642,0.139,0.013,160.410,0.131,0.048,0.626*49
$GPGGA,080943.10,5100.7535710,N,01347.4882703,E,5,16,0.75,122.2446,M,43.9749,M,2.1,0417*71
$GNGST,080943.10,0.644,0.139,0.013,160.410,0.131,0.048,0.628*40
$GPGGA,080943.20,5100.7535716,N,01347.4882705,E,5,16,0.75,122.2493,M,43.9749,M,2.2,0417*79
$GNGST,080943.20,0.646,0.140,0.013,160.410,0.132,0.049,0.630*44
$GPGGA,080943.30,5100.7535705,N,01347.4882703,E,5,16,0.75,122.2618,M,43.9749,M,1.3,0417*7F
$GNGST,080943.30,0.628,0.136,0.013,160.410,0.128,0.047,0.613*48
$GPGGA,080943.40,5100.7536045,N,01347.4882570,E,5,16,0.75,121.9703,M,43.9749,M,1.4,0417*7A
$GNGST,080943.40,0.628,0.136,0.013,160.433,0.128,0.047,0.613*4E
$GPGGA,080943.50,5100.7535819,N,01347.4882624,E,5,16,0.75,122.2044,M,43.9749,M,1.5,0417*76
$GNGST,080943.50,0.628,0.136,0.013,160.411,0.128,0.047,0.613*4F
$GPGGA,080943.60,5100.7535809,N,01347.4882643,E,5,16,0.75,122.2204,M,43.9749,M,0.6,0417*71
$GNGST,080943.60,0.610,0.132,0.013,160.411,0.124,0.046,0.596*40
$GPGGA,080943.70,5100.7536130,N,01347.4882495,E,5,16,0.75,121.9297,M,43.9749,M,0.7,0417*7A
$GNGST,080943.70,0.610,0.132,0.012,160.429,0.124,0.046,0.595*48
$GPGGA,080943.80,5100.7535928,N,01347.4882578,E,5,16,0.75,122.1645,M,43.9749,M,0.8,0417*7A
$GNGST,080943.80,0.610,0.132,0.012,160.408,0.124,0.046,0.595*44
$GPGGA,080943.90,5100.7535929,N,01347.4882606,E,5,16,0.75,122.1620,M,43.9749,M,0.9,0417*72
$GNGST,080943.90,0.612,0.132,0.012,160.408,0.125,0.046,0.597*44
$GPGGA,080944.00,5100.7535926,N,01347.4882581,E,5,16,0.75,122.1697,M,43.9749,M,1.0,0417*7B
$GNGST,080944.00,0.614,0.133,0.012,160.408,0.125,0.046,0.599*43
$GPGGA,080944.10,5100.7535939,N,01347.4882620,E,5,16,0.75,122.1526,M,43.9749,M,1.1,0417*74
$GNGST,080944.10,0.616,0.133,0.012,160.408,0.125,0.046,0.601*42
$GPGGA,080944.20,5100.7535931,N,01347.4882603,E,5,16,0.75,122.1626,M,43.9749,M,1.2,0417*7E
$GNGST,080944.20,0.618,0.133,0.013,160.408,0.126,0.046,0.603*4F
$GPGGA,080944.30,5100.7535940,N,01347.4882613,E,5,16,0.75,122.1591,M,43.9749,M,1.3,0417*76
$GNGST,080944.30,0.619,0.134,0.013,160.408,0.126,0.046,0.605*4E
$GPGGA,080944.40,5100.7535921,N,01347.4882608,E,5,16,0.75,122.1881,M,43.9749,M,1.4,0417*77
$GNGST,080944.40,0.621,0.134,0.013,160.408,0.126,0.047,0.607*41
$GPGGA,080944.50,5100.7535926,N,01347.4882586,E,5,16,0.75,122.1699,M,43.9749,M,1.5,0417*72
$GNGST,080944.50,0.623,0.135,0.013,160.408,0.127,0.047,0.608*4D
