$GPGGA,084706.30,5102.0327346,N,01344.3752461,E,4,12,0.93,116.5089,M,43.9322,M,1.3,0486*74
$GNGST,084706.30,0.020,0.009,0.008,12.630,0.009,0.008,0.016*74
$GPGGA,084706.40,5102.0327373,N,01344.3752458,E,4,12,0.93,116.5067,M,43.9322,M,1.4,0486*78
$GNGST,084706.40,0.020,0.009,0.008,12.606,0.009,0.008,0.016*76
$GPGGA,084706.50,5102.0327366,N,01344.3752447,E,4,12,0.93,116.5108,M,43.9322,M,1.5,0486*7A
$GNGST,084706.50,0.020,0.009,0.008,12.582,0.009,0.008,0.016*78
$GPGGA,084706.60,5102.0327354,N,01344.3752461,E,4,12,0.93,116.5061,M,43.9322,M,0.6,0486*70
$GNGST,084706.60,0.019,0.009,0.007,12.799,0.009,0.008,0.015*75
$GPGGA,084706.70,5102.0327352,N,01344.3752448,E,4,12,0.93,116.5063,M,43.9322,M,0.7,0486*7F
$GNGST,084706.70,0.030,0.019,0.008,12.426,0.018,0.009,0.022*73
$GPGGA,084706.80,5102.0327359,N,01344.3752437,E,4,12,0.93,116.5127,M,43.9322,M,0.8,0486*7D
$GNGST,084706.80,0.030,0.019,0.008,12.423,0.018,0.009,0.022*79
$GPGGA,084706.90,5102.0327339,N,01344.3752504,E,4,12,0.93,116.4980,M,43.9322,M,0.9,0486*7E
$GNGST,084706.90,0.030,0.019,0.008,12.421,0.018,0.009,0.022*7A
$GPGGA,084707.00,5102.0327349,N,01344.3752462,E,4,12,0.93,116.5072,M,43.9322,M,1.0,0486*7D
$GNGST,084707.00,0.030,0.019,0.008,12.419,0.018,0.009,0.022*79
$GPGGA,084707.10,5102.0327359,N,01344.3752470,E,4,12,0.93,116.5021,M,43.9322,M,1.1,0486*79
$GNGST,084707.10,0.030,0.019,0.008,12.416,0.018,0.009,0.022*77
$GPGGA,084707.20,5102.0327339,N,01344.3752443,E,4,12,0.93,116.5093,M,43.9322,M,1.2,0486*76
$GNGST,084707.20,0.030,0.019,0.008,12.414,0.018,0.009,0.022*76
$GPGGA,084707.30,5102.0327350,N,01344.3752465,E,4,12,0.93,116.4998,M,43.9322,M,1.3,0486*7E
$GNGST,084707.30,0.030,0.019,0.008,12.412,0.018,0.009,0.022*71
$GPGGA,084707.40,5102.0327321,N,01344.3752439,E,4,12,0.93,116.4995,M,43.9322,M,1.4,0486*7C
$GNGST,084707.40,0.030,0.019,0.008,12.410,0.018,0.009,0.022*74
$GPGGA,084707.50,5102.0327332,N,01344.3752448,E,4,12,0.93,116.5034,M,43.9322,M,1.5,0486*7B
$GNGST,084707.50,0.030,0.019,0.008,12.407,0.018,0.009,0.022*73
$GPGGA,084707.60,5102.0327336,N,01344.3752413,E,4,12,0.93,116.5088,M,43.9322,M,0.6,0486*77
$GNGST,084707.60,0.030,0.019,0.008,12.428,0.018,0.009,0.022*7D
$GPGGA,084707.70,5102.0327331,N,01344.3752440,E,4,12,0.93,116.5026,M,43.9322,M,0.7,0486*72
$GNGST,084707.70,0.020,0.010,0.009,30.356,0.010,0.009,0.015*77
$GPGGA,084707.80,5102.0327333,N,01344.3752482,E,4,12,0.93,116.4943,M,43.9322,M,0.8,0486*75
$GNGST,084707.80,0.020,0.010,0.009,30.268,0.010,0.009,0.015*74
$GPGGA,084707.90,5102.0327355,N,01344.3752489,E,4,11,0.93,116.4937,M,43.9322,M,0.9,0486*7E
$GNGST,084707.90,0.021,0.010,0.009,30.181,0.010,0.009,0.015*70
$GPGGA,084708.00,5102.0327364,N,01344.3752451,E,4,11,0.93,116.5072,M,43.9322,M,1.0,0486*7E
$GNGST,084708.00,0.021,0.010,0.009,30.094,0.010,0.009,0.016*70
$GPGGA,084708.10,5102.0327357,N,01344.3752476,E,4,11,0.93,116.4983,M,43.9322,M,1.1,0486*7D
$GNGST,084708.10,0.021,0.010,0.009,30.008,0.010,0.009,0.016*74
$GPGGA,084708.20,5102.0327352,N,01344.3752436,E,4,11,0.93,116.5056,M,43.9322,M,1.2,0486*7C
$GNGST,084708.20,0.021,0.010,0.009,29.921,0.010,0.009,0.016*7D
$GPGGA,084708.30,5102.0327340,N,01344.3752445,E,4,11,0.93,116.5001,M,43.9322,M,1.3,0486*79
$GNGST,084708.30,0.021,0.010,0.009,29.835,0.010,0.009,0.016*78
$GPGGA,084708.40,5102.0327338,N,01344.3752449,E,4,11,0.93,116.5054,M,43.9322,M,1.4,0486*7A
$GNGST,084708.40,0.021,0.010,0.009,29.749,0.010,0.009,0.016*7B
$GPGGA,084708.50,5102.0327332,N,01344.3752418,E,4,11,0.93,116.5097,M,43.9322,M,1.5,0486*7B
$GNGST,084708.50,0.021,0.010,0.009,29.664,0.010,0.009,0.016*74
$GPGGA,084708.60,5102.0327329,N,01344.3752445,E,4,11,0.93,116.5104,M,43.9322,M,0.6,0486*73
$GNGST,084708.60,0.020,0.010,0.009,30.443,0.010,0.009,0.015*7A
$GPGGA,084708.70,5102.0327333,N,01344.3752477,E,4,12,0.96,116.5053,M,43.9322,M,0.7,0486*7C
$GNGST,084708.70,0.022,0.011,0.009,114.027,0.009,0.011,0.016*4B
$GPGGA,084708.80,5102.0327326,N,01344.3752474,E,4,11,0.96,116.5086,M,43.9322,M,0.8,0486*70
$GNGST,084708.80,0.022,0.011,0.009,114.041,0.009,0.011,0.016*44
$GPGGA,084708.90,5102.0327338,N,01344.3752432,E,4,11,0.96,116.5147,M,43.9322,M,0.9,0486*71
$GNGST,084708.90,0.022,0.011,0.009,114.055,0.009,0.011,0.016*40
$GPGGA,084709.00,5102.0327309,N,01344.3752453,E,4,11,0.96,116.5107,M,43.9322,M,1.0,0486*70
$GNGST,084709.00,0.022,0.011,0.009,114.069,0.009,0.011,0.017*46
$GPGGA,084709.10,5102.0327345,N,01344.3752452,E,4,11,0.96,116.5059,M,43.9322,M,1.1,0486*73
$GNGST,084709.10,0.022,0.011,0.009,114.084,0.009,0.011,0.017*44
$GPGGA,084709.20,5102.0327333,N,01344.3752454,E,4,11,0.96,116.5102,M,43.9322,M,1.2,0486*7B
$GNGST,084709.20,0.022,0.011,0.009,114.098,0.009,0.011,0.017*4A
$GPGGA,084709.30,5102.0327324,N,01344.3752438,E,4,11,0.96,116.5060,M,43.9322,M,1.3,0486*72
$GNGST,084709.30,0.022,0.011,0.009,114.112,0.009,0.011,0.017*48
$GPGGA,084709.40,5102.0327340,N,01344.3752445,E,4,11,0.96,116.5092,M,43.9322,M,1.4,0486*77
$GNGST,084709.40,0.022,0.011,0.009,114.126,0.009,0.011,0.017*48
$GPGGA,084709.50,5102.0327339,N,01344.3752477,E,4,11,0.96,116.4991,M,43.9322,M,1.5,0486*73
$GNGST,084709.50,0.022,0.011,0.009,114.140,0.009,0.011,0.017*49
$GPGGA,084709.60,5102.0327337,N,01344.3752456,E,4,12,0.97,116.5040,M,43.9322,M,0.6,0486*79
$GNGST,084709.60,0.035,0.019,0.017,138.202,0.018,0.018,0.024*49
$GPGGA,084709.70,5102.0327338,N,01344.3752464,E,4,12,0.97,116.5065,M,43.9322,M,0.7,0486*70
$GNGST,084709.70,0.035,0.019,0.017,138.219,0.018,0.018,0.024*42
$GPGGA,084709.80,5102.0327328,N,01344.3752454,E,4,12,0.97,116.5072,M,43.9322,M,0.8,0486*74
$GNGST,084709.80,0.035,0.019,0.017,138.235,0.018,0.018,0.024*43
$GPGGA,084709.90,5102.0327313,N,01344.3752424,E,4,12,0.97,116.5134,M,43.9322,M,0.9,0486*78
$GNGST,084709.90,0.035,0.019,0.017,138.252,0.018,0.018,0.024*43
$GPGGA,084710.00,5102.0327328,N,01344.3752427,E,4,11,0.97,116.5105,M,43.9322,M,1.0,0486*7B
$GNGST,084710.00,0.035,0.019,0.017,138.268,0.018,0.018,0.024*4B
$GPGGA,084710.10,5102.0327335,N,01344.3752463,E,4,11,0.97,116.5060,M,43.9322,M,1.1,0486*75
$GNGST,084710.10,0.035,0.019,0.017,138.285,0.018,0.018,0.024*49
$GPGGA,084710.20,5102.0327321,N,01344.3752348,E,4,10,0.97,116.5285,M,43.9322,M,1.2,0486*76
$GNGST,084710.20,0.035,0.019,0.017,138.301,0.018,0.018,0.024*47
$GPGGA,084710.30,5102.0327317,N,01344.3752330,E,4,10,0.97,116.5289,M,43.9322,M,1.3,0486*70
$GNGST,084710.30,0.035,0.019,0.017,138.318,0.018,0.018,0.024*4E
$GPGGA,084710.40,5102.0327308,N,01344.3752278,E,4,10,0.97,116.5472,M,43.9322,M,1.4,0486*71
$GNGST,084710.40,0.035,0.019,0.017,138.334,0.018,0.018,0.024*47
$GPGGA,084710.50,5102.0327296,N,01344.3752293,E,4,10,0.97,116.5429,M,43.9322,M,1.5,0486*7C
$GNGST,084710.50,0.035,0.019,0.017,138.351,0.018,0.018,0.024*45
$GPGGA,084710.60,5102.0327268,N,01344.3752369,E,4,09,0.97,116.5520,M,43.9322,M,0.6,0486*78
$GNGST,084710.60,0.035,0.019,0.017,138.202,0.018,0.018,0.024*41
$GPGGA,084710.70,5102.0327347,N,01344.3752585,E,4,11,0.99,116.5106,M,43.9322,M,0.7,0486*77
$GNGST,084710.70,0.022,0.010,0.010,120.583,0.010,0.010,0.017*4F
$GPGGA,084710.80,5102.0327341,N,01344.3752579,E,4,11,0.99,116.5108,M,43.9322,M,0.8,0486*7C
$GNGST,084710.80,0.022,0.011,0.010,120.586,0.010,0.010,0.017*44
$GPGGA,084710.90,5102.0327348,N,01344.3752565,E,4,11,0.99,116.5093,M,43.9322,M,0.9,0486*7B
$GNGST,084710.90,0.022,0.011,0.010,120.588,0.010,0.010,0.017*4B
$GPGGA,084711.00,5102.0327337,N,01344.3752571,E,4,11,0.99,116.5110,M,43.9322,M,1.0,0486*7C
$GNGST,084711.00,0.022,0.011,0.010,120.591,0.010,0.010,0.017*4B
$GPGGA,084711.10,5102.0327338,N,01344.3752562,E,4,11,0.99,116.5132,M,43.9322,M,1.1,0486*71
$GNGST,084711.10,0.022,0.011,0.010,120.593,0.010,0.010,0.017*48
$GPGGA,084711.20,5102.0327361,N,01344.3752550,E,4,11,0.99,116.5220,M,43.9322,M,1.2,0486*7C
$GNGST,084711.20,0.022,0.011,0.010,120.596,0.010,0.010,0.017*4E
$GPGGA,084711.30,5102.0327362,N,01344.3752559,E,4,11,0.99,116.5214,M,43.9322,M,1.3,0486*71
$GNGST,084711.30,0.022,0.011,0.010,120.598,0.010,0.010,0.017*41
$GPGGA,084711.40,5102.0327333,N,01344.3752559,E,4,10,0.99,116.5092,M,43.9322,M,1.4,0486*78
$GNGST,084711.40,0.022,0.011,0.010,120.601,0.010,0.010,0.017*45
$GPGGA,084711.50,5102.0327351,N,01344.3752554,E,4,10,0.99,116.5091,M,43.9322,M,1.5,0486*72
$GNGST,084711.50,0.022,0.011,0.010,120.604,0.010,0.010,0.017*41
$GPGGA,084711.60,5102.0327330,N,01344.3752549,E,4,10,0.99,116.5059,M,43.9322,M,0.6,0486*7C
$GNGST,084711.60,0.022,0.010,0.010,120.581,0.010,0.010,0.017*4D
$GPGGA,084711.70,5102.0327338,N,01344.3752526,E,4,11,0.97,116.4905,M,43.9322,M,0.7,0486*73
$GNGST,084711.70,0.026,0.016,0.008,18.373,0.016,0.009,0.018*77
$GPGGA,084711.80,5102.0327336,N,01344.3752553,E,4,11,0.97,116.4887,M,43.9322,M,0.8,0486*74
$GNGST,084711.80,0.026,0.016,0.008,18.373,0.016,0.009,0.018*78
$GPGGA,084711.90,5102.0327345,N,01344.3752553,E,4,11,0.97,116.4891,M,43.9322,M,0.9,0486*77
$GNGST,084711.90,0.026,0.016,0.008,18.373,0.016,0.009,0.018*79
$GPGGA,084712.00,5102.0327343,N,01344.3752566,E,4,11,0.97,116.4910,M,43.9322,M,1.0,0486*7D
$GNGST,084712.00,0.026,0.016,0.008,18.373,0.016,0.009,0.018*73
$GPGGA,084712.10,5102.0327332,N,01344.3752592,E,4,11,0.97,116.4840,M,43.9322,M,1.1,0486*74
$GNGST,084712.10,0.026,0.016,0.008,18.373,0.016,0.009,0.018*72
$GPGGA,084712.20,5102.0327333,N,01344.3752566,E,4,11,0.97,116.4910,M,43.9322,M,1.2,0486*7A
$GNGST,084712.20,0.026,0.016,0.008,18.373,0.016,0.009,0.018*71
$GPGGA,084712.30,5102.0327349,N,01344.3752572,E,4,11,0.97,116.4879,M,43.9322,M,1.3,0486*7C
$GNGST,084712.30,0.026,0.016,0.008,18.373,0.016,0.009,0.018*70
$GPGGA,084712.40,5102.0327336,N,01344.3752560,E,4,11,0.97,116.4907,M,43.9322,M,1.4,0486*7F
$GNGST,084712.40,0.026,0.017,0.008,18.373,0.016,0.009,0.018*76
$GPGGA,084712.50,5102.0327304,N,01344.3752546,E,4,11,0.97,116.4915,M,43.9322,M,1.5,0486*79
$GNGST,084712.50,0.026,0.017,0.008,18.373,0.016,0.009,0.018*77
$GPGGA,084712.60,5102.0327326,N,01344.3752536,E,4,11,1.05,116.4988,M,43.9322,M,0.6,0486*71
$GNGST,084712.60,0.023,0.011,0.009,168.089,0.011,0.009,0.018*41
$GPGGA,084712.70,5102.0327326,N,01344.3752554,E,4,11,1.05,116.4960,M,43.9322,M,0.7,0486*73
$GNGST,084712.70,0.023,0.011,0.009,168.127,0.011,0.009,0.018*45
$GPGGA,084712.80,5102.0327331,N,01344.3752554,E,4,11,1.05,116.5031,M,43.9322,M,0.8,0486*79
$GNGST,084712.80,0.023,0.011,0.009,168.164,0.011,0.009,0.018*4D
$GPGGA,084712.90,5102.0327344,N,01344.3752525,E,4,11,1.05,116.5075,M,43.9322,M,0.9,0486*7D
$GNGST,084712.90,0.023,0.011,0.009,168.201,0.011,0.009,0.018*4C
$GPGGA,084713.00,5102.0327327,N,01344.3752528,E,4,11,1.05,116.5041,M,43.9322,M,1.0,0486*72
$GNGST,084713.00,0.023,0.011,0.009,168.238,0.011,0.009,0.018*4E
$GPGGA,084713.10,5102.0327334,N,01344.3752546,E,4,11,1.05,116.5061,M,43.9322,M,1.1,0486*7A
$GNGST,084713.10,0.023,0.011,0.009,168.275,0.011,0.009,0.018*46
$GPGGA,084713.20,5102.0327334,N,01344.3752552,E,4,11,1.05,116.5137,M,43.9322,M,1.2,0486*7D
$GNGST,084713.20,0.023,0.011,0.009,168.311,0.011,0.009,0.018*46
$GPGGA,084713.30,5102.0327314,N,01344.3752535,E,4,11,1.05,116.4981,M,43.9322,M,1.3,0486*7A
$GNGST,084713.30,0.023,0.011,0.009,168.347,0.011,0.009,0.018*44
$GPGGA,084713.40,5102.0327312,N,01344.3752518,E,4,11,1.05,116.5030,M,43.9322,M,1.4,0486*71
$GNGST,084713.40,0.024,0.011,0.009,168.383,0.011,0.009,0.018*4C
$GPGGA,084713.50,5102.0327323,N,01344.3752513,E,4,11,1.05,116.4960,M,43.9322,M,1.5,0486*75
$GNGST,084713.50,0.024,0.011,0.009,168.419,0.011,0.010,0.019*40
$GPGGA,084713.60,5102.0327304,N,01344.3752538,E,4,11,1.05,116.4895,M,43.9322,M,0.6,0486*73
$GNGST,084713.60,0.023,0.011,0.009,168.089,0.011,0.009,0.018*40
$GPGGA,084713.70,5102.0327318,N,01344.3752529,E,4,11,1.04,116.4915,M,43.9322,M,0.7,0486*76
$GNGST,084713.70,0.022,0.011,0.008,3.876,0.011,0.008,0.018*44
$GPGGA,084713.80,5102.0327275,N,01344.3752503,E,4,11,1.04,116.4855,M,43.9322,M,0.8,0486*71
$GNGST,084713.80,0.022,0.011,0.008,3.862,0.011,0.008,0.018*4E
$GPGGA,084713.90,5102.0327305,N,01344.3752542,E,4,11,1.04,116.4870,M,43.9322,M,0.9,0486*75
$GNGST,084713.90,0.022,0.011,0.008,3.849,0.011,0.008,0.018*46
$GPGGA,084714.00,5102.0327305,N,01344.3752581,E,4,11,1.04,116.4833,M,43.9322,M,1.0,0486*7B
$GNGST,084714.00,0.022,0.011,0.008,3.837,0.011,0.008,0.018*41
$GPGGA,084714.10,5102.0327323,N,01344.3752564,E,4,11,1.04,116.4890,M,43.9322,M,1.1,0486*7D
$GNGST,084714.10,0.022,0.011,0.008,3.824,0.011,0.008,0.018*42
$GPGGA,084714.20,5102.0327313,N,01344.3752556,E,4,11,1.04,116.4885,M,43.9322,M,1.2,0486*7B
$GNGST,084714.20,0.022,0.011,0.008,3.811,0.011,0.008,0.018*47
$GPGGA,084714.30,5102.0327328,N,01344.3752550,E,4,11,1.04,116.4934,M,43.9322,M,1.3,0486*7E
$GNGST,084714.30,0.022,0.011,0.008,3.798,0.011,0.008,0.018*48
$GPGGA,084714.40,5102.0327269,N,01344.3752559,E,4,11,1.04,116.4576,M,43.9322,M,1.4,0486*79
$GNGST,084714.40,0.022,0.011,0.008,3.785,0.011,0.008,0.018*43
$GPGGA,084714.50,5102.0327271,N,01344.3752564,E,4,11,1.04,116.4603,M,43.9322,M,1.5,0486*7F
$GNGST,084714.50,0.022,0.011,0.008,3.773,0.011,0.008,0.018*4B
$GPGGA,084714.60,5102.0327282,N,01344.3752560,E,4,11,1.04,116.4660,M,43.9322,M,1.6,0486*72
$GNGST,084714.60,0.023,0.011,0.008,3.760,0.011,0.008,0.018*4B
$GPGGA,084714.70,5102.0327269,N,01344.3752529,E,4,11,1.04,116.4657,M,43.9322,M,1.7,0486*7E
$GNGST,084714.70,0.023,0.011,0.008,3.747,0.011,0.008,0.018*4F
$GPGGA,084714.80,5102.0327278,N,01344.3752536,E,4,11,1.04,116.4661,M,43.9322,M,1.8,0486*75
$GNGST,084714.80,0.023,0.011,0.008,3.735,0.011,0.008,0.018*45
$GPGGA,084714.90,5102.0327261,N,01344.3752534,E,4,11,1.04,116.4673,M,43.9322,M,1.9,0486*7C
$GNGST,084714.90,0.023,0.011,0.008,3.722,0.011,0.008,0.018*42
$GPGGA,084715.00,5102.0327257,N,01344.3752575,E,4,11,1.04,116.4552,M,43.9322,M,2.0,0486*7E
$GNGST,084715.00,0.023,0.011,0.008,3.710,0.011,0.008,0.018*4B
$GPGGA,084715.10,5102.0327251,N,01344.3752540,E,4,11,1.04,116.4672,M,43.9322,M,2.1,0486*7F
$GNGST,084715.10,0.023,0.011,0.008,3.697,0.011,0.008,0.018*44
$GPGGA,084715.20,5102.0327263,N,01344.3752558,E,4,11,1.04,116.4697,M,43.9322,M,2.2,0486*7C
$GNGST,084715.20,0.023,0.011,0.008,3.685,0.011,0.008,0.018*44
$GPGGA,084715.30,5102.0327263,N,01344.3752563,E,4,11,1.04,116.4619,M,43.9322,M,2.3,0486*72
$GNGST,084715.30,0.023,0.011,0.008,3.673,0.011,0.008,0.018*4C
$GPGGA,084715.40,5102.0327285,N,01344.3752538,E,4,11,1.04,116.4734,M,43.9322,M,1.4,0486*79
$GNGST,084715.40,0.022,0.011,0.008,3.785,0.011,0.008,0.018*42
$GPGGA,084715.50,5102.0327340,N,01344.3752539,E,4,11,1.04,116.5045,M,43.9322,M,1.5,0486*70
$GNGST,084715.50,0.018,0.007,0.006,168.119,0.007,0.006,0.016*4B
$GPGGA,084715.60,5102.0327343,N,01344.3752484,E,4,11,1.04,116.5092,M,43.9322,M,1.6,0486*7E
$GNGST,084715.60,0.018,0.007,0.006,168.224,0.007,0.006,0.016*45
$GPGGA,084715.70,5102.0327347,N,01344.3752535,E,4,11,1.04,116.5045,M,43.9322,M,1.7,0486*7B
$GNGST,084715.70,0.018,0.007,0.006,168.328,0.007,0.006,0.016*49
$GPGGA,084715.80,5102.0327362,N,01344.3752531,E,4,11,1.03,116.5075,M,43.9322,M,0.8,0486*7D
$GNGST,084715.80,0.019,0.008,0.007,3.845,0.008,0.007,0.016*4B
$GPGGA,084715.90,5102.0327371,N,01344.3752507,E,4,11,1.03,116.5145,M,43.9322,M,0.9,0486*78
$GNGST,084715.90,0.019,0.008,0.007,3.792,0.008,0.007,0.016*4F
$GPGGA,084716.00,5102.0327366,N,01344.3752495,E,4,11,1.03,116.5136,M,43.9322,M,1.0,0486*72
$GNGST,084716.00,0.019,0.008,0.007,3.740,0.008,0.007,0.016*4A
$GPGGA,084716.10,5102.0327364,N,01344.3752516,E,4,11,1.03,116.5124,M,43.9322,M,1.1,0486*79
$GNGST,084716.10,0.019,0.008,0.007,3.688,0.008,0.007,0.016*4E
$GPGGA,084716.20,5102.0327364,N,01344.3752523,E,4,11,1.03,116.5043,M,43.9322,M,1.2,0486*7F
$GNGST,084716.20,0.019,0.008,0.007,3.638,0.008,0.007,0.016*46
$GPGGA,084716.30,5102.0327358,N,01344.3752533,E,4,11,1.03,116.5151,M,43.9322,M,1.3,0486*73
$GNGST,084716.30,0.019,0.008,0.007,3.588,0.008,0.007,0.016*4F
$GPGGA,084716.40,5102.0327346,N,01344.3752528,E,4,11,1.03,116.5133,M,43.9322,M,1.4,0486*72
$GNGST,084716.40,0.019,0.008,0.007,3.539,0.008,0.007,0.016*42
$GPGGA,084716.50,5102.0327346,N,01344.3752545,E,4,11,1.03,116.5093,M,43.9322,M,1.5,0486*72
$GNGST,084716.50,0.019,0.008,0.007,3.490,0.008,0.007,0.016*41
$GPGGA,084716.60,5102.0327333,N,01344.3752567,E,4,11,1.10,116.4834,M,43.9322,M,0.6,0486*77
$GNGST,084716.60,0.027,0.014,0.005,0.069,0.014,0.005,0.023*48
$GPGGA,084716.70,5102.0327338,N,01344.3752542,E,4,11,1.10,116.4872,M,43.9322,M,0.7,0486*79
$GNGST,084716.70,0.027,0.014,0.005,0.065,0.014,0.005,0.023*45
$GPGGA,084716.80,5102.0327344,N,01344.3752559,E,4,11,1.10,116.4774,M,43.9322,M,0.8,0486*71
$GNGST,084716.80,0.027,0.014,0.005,0.062,0.014,0.005,0.023*4D
$GPGGA,084716.90,5102.0327314,N,01344.3752561,E,4,11,1.10,116.4835,M,43.9322,M,0.9,0486*75
$GNGST,084716.90,0.027,0.014,0.005,0.058,0.014,0.005,0.023*45
$GPGGA,084717.00,5102.0327298,N,01344.3752526,E,4,11,1.10,116.4788,M,43.9322,M,1.0,0486*7A
$GNGST,084717.00,0.027,0.014,0.005,0.055,0.014,0.005,0.023*40
$GPGGA,084717.10,5102.0327287,N,01344.3752571,E,4,11,1.10,116.4800,M,43.9322,M,1.1,0486*79
$GNGST,084717.10,0.027,0.014,0.005,0.051,0.014,0.005,0.023*45
$GPGGA,084717.20,5102.0327305,N,01344.3752635,E,4,10,1.10,116.4646,M,43.9322,M,1.2,0486*7C
$GNGST,084717.20,0.027,0.014,0.005,0.048,0.014,0.005,0.023*4E
$GPGGA,084717.30,5102.0327279,N,01344.3752629,E,4,10,1.10,116.4652,M,43.9322,M,1.3,0486*7E
$GNGST,084717.30,0.027,0.014,0.005,0.044,0.014,0.005,0.023*43
$GPGGA,084717.40,5102.0327276,N,01344.3752630,E,4,10,1.10,116.4610,M,43.9322,M,1.4,0486*7F
$GNGST,084717.40,0.027,0.014,0.005,0.041,0.014,0.005,0.023*41
$GPGGA,084717.50,5102.0327269,N,01344.3752627,E,4,10,1.10,116.4636,M,43.9322,M,1.5,0486*73
$GNGST,084717.50,0.028,0.014,0.006,0.037,0.014,0.006,0.023*4E
$GPGGA,084717.60,5102.0327285,N,01344.3752600,E,4,10,1.10,116.4607,M,43.9322,M,0.6,0486*77
$GNGST,084717.60,0.027,0.014,0.005,0.069,0.014,0.005,0.023*49
$GPGGA,084717.70,5102.0327321,N,01344.3752672,E,4,11,1.00,116.4656,M,43.9322,M,0.7,0486*79
$GNGST,084717.70,0.022,0.013,0.005,15.383,0.012,0.006,0.017*7B
$GPGGA,084717.80,5102.0327314,N,01344.3752697,E,4,11,1.00,116.4665,M,43.9322,M,0.8,0486*74
$GNGST,084717.80,0.022,0.013,0.005,15.371,0.012,0.006,0.017*79
$GPGGA,084717.90,5102.0327323,N,01344.3752700,E,4,11,1.00,116.4654,M,43.9322,M,0.9,0486*7D
$GNGST,084717.90,0.022,0.013,0.005,15.359,0.012,0.006,0.017*72
$GPGGA,084718.00,5102.0327322,N,01344.3752704,E,4,11,1.00,116.4725,M,43.9322,M,1.0,0486*71
$GNGST,084718.00,0.022,0.013,0.005,15.347,0.012,0.006,0.017*7B
$GPGGA,084718.10,5102.0327331,N,01344.3752720,E,4,11,1.00,116.4658,M,43.9322,M,1.1,0486*7E
$GNGST,084718.10,0.022,0.013,0.005,15.336,0.013,0.006,0.017*7D
$GPGGA,084718.20,5102.0327322,N,01344.3752697,E,4,11,1.00,116.4699,M,43.9322,M,1.2,0486*7C
$GNGST,084718.20,0.022,0.013,0.005,15.324,0.013,0.006,0.017*7D
$GPGGA,084718.30,5102.0327319,N,01344.3752689,E,4,11,1.00,116.4722,M,43.9322,M,1.3,0486*7A
$GNGST,084718.30,0.022,0.013,0.005,15.312,0.013,0.006,0.017*79
$GPGGA,084718.40,5102.0327359,N,01344.3752698,E,4,11,1.00,116.4782,M,43.9322,M,1.4,0486*74
$GNGST,084718.40,0.022,0.013,0.005,15.300,0.013,0.006,0.017*7D
$GPGGA,084718.50,5102.0327347,N,01344.3752663,E,4,11,1.00,116.4777,M,43.9322,M,1.5,0486*75
$GNGST,084718.50,0.022,0.013,0.005,15.288,0.013,0.006,0.017*7D
$GPGGA,084718.60,5102.0327362,N,01344.3752677,E,4,11,1.00,116.4816,M,43.9322,M,1.6,0486*7F
$GNGST,084718.60,0.022,0.013,0.005,15.276,0.013,0.006,0.017*7F
$GPGGA,084718.70,5102.0327355,N,01344.3752655,E,4,11,1.00,116.4777,M,43.9322,M,1.7,0486*73
$GNGST,084718.70,0.022,0.013,0.005,15.265,0.013,0.006,0.017*7C
$GPGGA,084718.80,5102.0327345,N,01344.3752650,E,4,11,1.00,116.4746,M,43.9322,M,1.8,0486*75
$GNGST,084718.80,0.022,0.013,0.005,15.253,0.013,0.006,0.017*76
$GPGGA,084718.90,5102.0327361,N,01344.3752653,E,4,11,1.00,116.4807,M,43.9322,M,1.9,0486*7A
$GNGST,084718.90,0.022,0.013,0.005,15.241,0.013,0.006,0.017*74
$GPGGA,084719.00,5102.0327357,N,01344.3752661,E,4,11,1.00,116.4771,M,43.9322,M,2.0,0486*72
$GNGST,084719.00,0.022,0.013,0.005,15.229,0.013,0.006,0.017*72
$GPGGA,084719.10,5102.0327363,N,01344.3752651,E,4,11,1.00,116.4723,M,43.9322,M,2.1,0486*71
$GNGST,084719.10,0.022,0.013,0.005,15.218,0.013,0.006,0.017*71
$GPGGA,084719.20,5102.0327352,N,01344.3752654,E,4,11,1.11,116.4694,M,43.9322,M,1.2,0486*78
$GNGST,084719.20,0.037,0.024,0.019,94.115,0.019,0.023,0.022*73
$GPGGA,084719.30,5102.0327349,N,01344.3752669,E,4,11,1.11,116.4668,M,43.9322,M,1.3,0486*7F
$GNGST,084719.30,0.037,0.024,0.019,94.105,0.019,0.023,0.022*73
$GPGGA,084719.40,5102.0327355,N,01344.3752669,E,4,11,1.11,116.4759,M,43.9322,M,1.4,0486*71
$GNGST,084719.40,0.037,0.024,0.019,94.095,0.019,0.024,0.022*7B
$GPGGA,084719.50,5102.0327342,N,01344.3752624,E,4,11,1.11,116.4702,M,43.9322,M,1.5,0486*70
$GNGST,084719.50,0.037,0.024,0.019,94.085,0.019,0.024,0.022*7B
$GPGGA,084719.60,5102.0327327,N,01344.3752660,E,4,11,1.11,116.4643,M,43.9322,M,0.6,0486*76
$GNGST,084719.60,0.037,0.023,0.018,94.175,0.019,0.023,0.022*77
$GPGGA,084719.70,5102.0327337,N,01344.3752654,E,4,11,1.11,116.4574,M,43.9322,M,0.7,0486*77
$GNGST,084719.70,0.045,0.027,0.024,27.867,0.026,0.024,0.027*74
$GPGGA,084719.80,5102.0327357,N,01344.3752679,E,4,11,1.11,116.4681,M,43.9322,M,0.8,0486*77
$GNGST,084719.80,0.045,0.027,0.024,27.865,0.026,0.024,0.027*79
$GPGGA,084719.90,5102.0327357,N,01344.3752680,E,4,11,1.11,116.4596,M,43.9322,M,0.9,0486*74
$GNGST,084719.90,0.045,0.027,0.024,27.863,0.026,0.024,0.027*7E
$GPGGA,084720.00,5102.0327359,N,01344.3752643,E,4,11,1.11,116.4678,M,43.9322,M,1.0,0486*7D
$GNGST,084720.00,0.045,0.027,0.024,27.861,0.026,0.024,0.028*70
$GPGGA,084720.10,5102.0327370,N,01344.3752672,E,4,11,1.11,116.4634,M,43.9322,M,1.1,0486*7C
$GNGST,084720.10,0.045,0.027,0.024,27.859,0.026,0.024,0.028*7A
$GPGGA,084720.20,5102.0327387,N,01344.3752692,E,4,11,1.11,116.4631,M,43.9322,M,1.2,0486*7F
$GNGST,084720.20,0.045,0.027,0.024,27.857,0.026,0.024,0.028*77
$GPGGA,084720.30,5102.0327395,N,01344.3752670,E,4,11,1.11,116.4703,M,43.9322,M,1.3,0486*70
$GNGST,084720.30,0.045,0.027,0.024,27.855,0.026,0.024,0.028*74
$GPGGA,084720.40,5102.0327378,N,01344.3752686,E,4,11,1.11,116.4615,M,43.9322,M,1.4,0486*7C
$GNGST,084720.40,0.045,0.027,0.024,27.853,0.026,0.024,0.028*75
$GPGGA,084720.50,5102.0327390,N,01344.3752678,E,4,11,1.11,116.4682,M,43.9322,M,1.5,0486*75
$GNGST,084720.50,0.045,0.027,0.024,27.851,0.026,0.024,0.028*76
$GPGGA,084720.60,5102.0327366,N,01344.3752704,E,4,11,1.11,116.4590,M,43.9322,M,0.6,0486*77
$GNGST,084720.60,0.044,0.027,0.022,17.462,0.026,0.022,0.028*7B
$GPGGA,084720.70,5102.0327394,N,01344.3752680,E,4,11,1.11,116.4689,M,43.9322,M,0.7,0486*7C
$GNGST,084720.70,0.044,0.027,0.022,17.466,0.026,0.022,0.028*7E
$GPGGA,084720.80,5102.0327381,N,01344.3752669,E,4,11,1.11,116.4761,M,43.9322,M,0.8,0486*78
$GNGST,084720.80,0.044,0.027,0.022,17.469,0.026,0.022,0.028*7E
$GPGGA,084720.90,5102.0327382,N,01344.3752676,E,4,11,1.11,116.4741,M,43.9322,M,0.9,0486*77
$GNGST,084720.90,0.044,0.027,0.022,17.473,0.026,0.022,0.028*74
$GPGGA,084721.00,5102.0327364,N,01344.3752648,E,4,11,1.11,116.4684,M,43.9322,M,1.0,0486*7A
$GNGST,084721.00,0.044,0.027,0.022,17.477,0.026,0.022,0.028*78
$GPGGA,084721.10,5102.0327382,N,01344.3752665,E,4,11,1.11,116.4665,M,43.9322,M,1.1,0486*72
$GNGST,084721.10,0.045,0.027,0.022,17.481,0.026,0.022,0.028*71
$GPGGA,084721.20,5102.0327371,N,01344.3752667,E,4,11,1.11,116.4657,M,43.9322,M,1.2,0486*7D
$GNGST,084721.20,0.045,0.027,0.022,17.485,0.026,0.022,0.028*76
$GPGGA,084721.30,5102.0327347,N,01344.3752636,E,4,11,1.11,116.4640,M,43.9322,M,1.3,0486*7A
$GNGST,084721.30,0.045,0.027,0.022,17.489,0.026,0.022,0.028*7B
$GPGGA,084721.40,5102.0327357,N,01344.3752660,E,4,11,1.11,116.4627,M,43.9322,M,1.4,0486*79
$GNGST,084721.40,0.045,0.027,0.022,17.493,0.026,0.022,0.028*77
$GPGGA,084721.50,5102.0327363,N,01344.3752665,E,4,11,1.11,116.4703,M,43.9322,M,1.5,0486*7C
$GNGST,084721.50,0.045,0.027,0.022,17.497,0.026,0.022,0.029*73
$GPGGA,084721.60,5102.0327354,N,01344.3752651,E,4,11,1.11,116.4672,M,43.9322,M,1.6,0486*78
$GNGST,084721.60,0.045,0.027,0.022,17.501,0.026,0.022,0.029*7E
$GPGGA,084721.70,5102.0327365,N,01344.3752666,E,4,11,1.11,116.4659,M,43.9322,M,1.7,0486*77
$GNGST,084721.70,0.045,0.027,0.022,17.505,0.026,0.022,0.029*7B
$GPGGA,084721.80,5102.0327338,N,01344.3752659,E,4,11,1.11,116.4662,M,43.9322,M,1.8,0486*7B
$GNGST,084721.80,0.045,0.027,0.022,17.509,0.026,0.022,0.029*78
$GPGGA,084721.90,5102.0327355,N,01344.3752630,E,4,11,1.11,116.4689,M,43.9322,M,0.9,0486*7B
$GNGST,084721.90,0.044,0.027,0.022,17.473,0.026,0.022,0.028*75
$GPGGA,084722.00,5102.0327350,N,01344.3752609,E,4,11,1.12,116.4722,M,43.9322,M,1.0,0486*75
$GNGST,084722.00,0.035,0.020,0.015,9.181,0.020,0.015,0.024*43
$GPGGA,084722.10,5102.0327357,N,01344.3752622,E,4,11,1.12,116.4713,M,43.9322,M,1.1,0486*79
$GNGST,084722.10,0.035,0.020,0.015,9.193,0.020,0.015,0.024*41
$GPGGA,084722.20,5102.0327376,N,01344.3752636,E,4,11,1.12,116.4759,M,43.9322,M,1.2,0486*71
$GNGST,084722.20,0.035,0.020,0.015,9.204,0.020,0.015,0.025*4E
$GPGGA,084722.30,5102.0327344,N,01344.3752626,E,4,11,1.12,116.4661,M,43.9322,M,1.3,0486*7B
$GNGST,084722.30,0.035,0.020,0.015,9.216,0.020,0.015,0.025*4C
$GPGGA,084722.40,5102.0327357,N,01344.3752633,E,4,11,1.12,116.4756,M,43.9322,M,1.4,0486*78
$GNGST,084722.40,0.035,0.020,0.015,9.228,0.020,0.015,0.025*46
$GPGGA,084722.50,5102.0327381,N,01344.3752659,E,4,11,1.12,116.4759,M,43.9322,M,1.5,0486*70
$GNGST,084722.50,0.035,0.020,0.015,9.239,0.020,0.015,0.025*47
$GPGGA,084722.60,5102.0327350,N,01344.3752641,E,4,11,1.12,116.4776,M,43.9322,M,0.6,0486*79
$GNGST,084722.60,0.031,0.017,0.016,20.562,0.017,0.016,0.021*76
$GPGGA,084722.70,5102.0327374,N,01344.3752620,E,4,11,1.12,116.4856,M,43.9322,M,0.7,0486*75
$GNGST,084722.70,0.031,0.017,0.016,20.580,0.017,0.016,0.021*7B
$GPGGA,084722.80,5102.0327384,N,01344.3752653,E,4,11,1.12,116.4839,M,43.9322,M,0.8,0486*77
$GNGST,084722.80,0.031,0.017,0.016,20.597,0.017,0.016,0.021*72
$GPGGA,084722.90,5102.0327383,N,01344.3752645,E,4,11,1.12,116.4885,M,43.9322,M,0.9,0486*70
$GNGST,084722.90,0.031,0.017,0.016,20.614,0.017,0.016,0.021*7B
$GPGGA,084723.00,5102.0327363,N,01344.3752633,E,4,11,1.12,116.4868,M,43.9322,M,1.0,0486*7C
$GNGST,084723.00,0.031,0.017,0.016,20.631,0.017,0.016,0.021*74
$GPGGA,084723.10,5102.0327369,N,01344.3752652,E,4,11,1.12,116.4804,M,43.9322,M,1.1,0486*7B
$GNGST,084723.10,0.031,0.017,0.016,20.647,0.017,0.016,0.021*74
$GPGGA,084723.20,5102.0327355,N,01344.3752632,E,4,11,1.12,116.4824,M,43.9322,M,1.2,0486*70
$GNGST,084723.20,0.031,0.017,0.016,20.664,0.017,0.016,0.021*76
$GPGGA,084723.30,5102.0327388,N,01344.3752659,E,4,11,1.12,116.4849,M,43.9322,M,1.3,0486*76
$GNGST,084723.30,0.031,0.017,0.016,20.680,0.017,0.016,0.021*7D
$GPGGA,084723.40,5102.0327393,N,01344.3752665,E,4,11,1.12,116.4768,M,43.9322,M,1.4,0486*7F
$GNGST,084723.40,0.031,0.017,0.016,20.697,0.017,0.016,0.021*7C
$GPGGA,084723.50,5102.0327390,N,01344.3752647,E,4,11,1.12,116.4736,M,43.9322,M,1.5,0486*77
$GNGST,084723.50,0.031,0.017,0.016,20.713,0.017,0.016,0.021*70
$GPGGA,084723.60,5102.0327375,N,01344.3752658,E,4,11,1.12,116.4755,M,43.9322,M,1.6,0486*77
$GNGST,084723.60,0.032,0.017,0.016,20.730,0.017,0.016,0.022*72
$GPGGA,084723.70,5102.0327355,N,01344.3752668,E,4,11,1.13,116.4710,M,43.9322,M,0.7,0486*77
$GNGST,084723.70,0.027,0.016,0.012,101.705,0.012,0.016,0.019*4B
$GPGGA,084723.80,5102.0327360,N,01344.3752654,E,4,11,1.13,116.4680,M,43.9322,M,0.8,0486*76
$GNGST,084723.80,0.027,0.016,0.012,101.692,0.012,0.016,0.019*4B
$GPGGA,084723.90,5102.0327355,N,01344.3752637,E,4,11,1.13,116.4660,M,43.9322,M,0.9,0486*7B
$GNGST,084723.90,0.028,0.016,0.012,101.679,0.012,0.016,0.019*40
$GPGGA,084724.00,5102.0327338,N,01344.3752613,E,4,11,1.13,116.4589,M,43.9322,M,1.0,0486*74
$GNGST,084724.00,0.028,0.016,0.012,101.666,0.012,0.016,0.019*40
$GPGGA,084724.10,5102.0327324,N,01344.3752643,E,4,11,1.13,116.4606,M,43.9322,M,1.1,0486*78
$GNGST,084724.10,0.028,0.016,0.012,101.653,0.012,0.016,0.019*47
$GPGGA,084724.20,5102.0327333,N,01344.3752641,E,4,11,1.13,116.4678,M,43.9322,M,1.2,0486*75
$GNGST,084724.20,0.028,0.016,0.012,101.639,0.012,0.016,0.019*48
$GPGGA,084724.30,5102.0327335,N,01344.3752640,E,4,11,1.13,116.4615,M,43.9322,M,1.3,0486*79
$GNGST,084724.30,0.028,0.017,0.012,101.626,0.012,0.016,0.019*46
$GPGGA,084724.40,5102.0327334,N,01344.3752638,E,4,11,1.13,116.4626,M,43.9322,M,1.4,0486*77
$GNGST,084724.40,0.028,0.017,0.012,101.613,0.012,0.016,0.019*47
$GPGGA,084724.50,5102.0327351,N,01344.3752649,E,4,11,1.13,116.4687,M,43.9322,M,1.5,0486*79
$GNGST,084724.50,0.028,0.017,0.012,101.600,0.012,0.016,0.019*44
$GPGGA,084724.60,5102.0327348,N,01344.3752664,E,4,11,1.13,116.4715,M,43.9322,M,1.6,0486*74
$GNGST,084724.60,0.028,0.017,0.012,101.587,0.012,0.016,0.019*4B
$GPGGA,084724.70,5102.0327360,N,01344.3752650,E,4,11,1.13,116.4745,M,43.9322,M,1.7,0486*7C
$GNGST,084724.70,0.028,0.017,0.012,101.573,0.012,0.016,0.019*41
$GPGGA,084724.80,5102.0327357,N,01344.3752670,E,4,11,1.13,116.4687,M,43.9322,M,1.8,0486*75
$GNGST,084724.80,0.028,0.017,0.012,101.560,0.012,0.016,0.019*4C
$GPGGA,084724.90,5102.0327350,N,01344.3752641,E,4,11,1.13,116.4706,M,43.9322,M,0.9,0486*79
$GNGST,084724.90,0.023,0.014,0.009,100.306,0.009,0.014,0.017*4E
$GPGGA,084725.00,5102.0327359,N,01344.3752667,E,4,11,1.13,116.4746,M,43.9322,M,1.0,0486*70
$GNGST,084725.00,0.023,0.014,0.009,100.290,0.009,0.014,0.017*48
$GPGGA,084725.10,5102.0327360,N,01344.3752670,E,4,11,1.13,116.4744,M,43.9322,M,1.1,0486*7E
$GNGST,084725.10,0.023,0.014,0.009,100.273,0.009,0.014,0.017*44
$GPGGA,084725.20,5102.0327365,N,01344.3752671,E,4,11,1.13,116.4776,M,43.9322,M,1.2,0486*7B
$GNGST,084725.20,0.023,0.014,0.009,100.256,0.009,0.014,0.017*40
$GPGGA,084725.30,5102.0327361,N,01344.3752662,E,4,11,1.13,116.4788,M,43.9322,M,1.3,0486*7C
$GNGST,084725.30,0.024,0.014,0.009,100.240,0.009,0.014,0.017*41
$GPGGA,084725.40,5102.0327339,N,01344.3752641,E,4,11,1.13,116.4673,M,43.9322,M,1.4,0486*75
$GNGST,084725.40,0.024,0.014,0.009,100.223,0.009,0.014,0.017*43
$GPGGA,084725.50,5102.0327318,N,01344.3752644,E,4,11,1.13,116.4669,M,43.9322,M,1.5,0486*78
$GNGST,084725.50,0.024,0.014,0.009,100.206,0.009,0.014,0.017*45
$GPGGA,084725.60,5102.0327342,N,01344.3752652,E,4,11,1.13,116.4728,M,43.9322,M,1.6,0486*74
$GNGST,084725.60,0.024,0.014,0.009,100.190,0.009,0.014,0.017*4A
$GPGGA,084725.70,5102.0327338,N,01344.3752643,E,4,11,1.13,116.4723,M,43.9322,M,0.7,0486*73
$GNGST,084725.70,0.023,0.014,0.009,100.339,0.009,0.014,0.016*4C
$GPGGA,084725.80,5102.0327331,N,01344.3752583,E,4,12,0.93,116.4864,M,43.9322,M,0.8,0486*73
$GNGST,084725.80,0.021,0.013,0.008,100.636,0.008,0.013,0.014*49
$GPGGA,084725.90,5102.0327338,N,01344.3752594,E,4,12,0.93,116.4873,M,43.9322,M,0.9,0486*7A
$GNGST,084725.90,0.021,0.013,0.008,100.639,0.008,0.013,0.014*47
$GPGGA,084726.00,5102.0327361,N,01344.3752603,E,4,12,0.93,116.4874,M,43.9322,M,1.0,0486*7E
$GNGST,084726.00,0.021,0.013,0.008,100.643,0.008,0.013,0.014*40
$GPGGA,084726.10,5102.0327380,N,01344.3752602,E,4,12,0.93,116.4982,M,43.9322,M,1.1,0486*78
$GNGST,084726.10,0.021,0.013,0.008,100.646,0.008,0.013,0.014*44
$GPGGA,084726.20,5102.0327350,N,01344.3752599,E,4,12,0.93,116.4897,M,43.9322,M,1.2,0486*71
$GNGST,084726.20,0.021,0.013,0.008,100.649,0.008,0.013,0.014*48
$GPGGA,084726.30,5102.0327309,N,01344.3752570,E,4,12,0.93,116.4863,M,43.9322,M,1.3,0486*71
$GNGST,084726.30,0.021,0.013,0.008,100.652,0.008,0.013,0.014*43
$GPGGA,084726.40,5102.0327311,N,01344.3752571,E,4,12,0.93,116.4797,M,43.9322,M,1.4,0486*7D
$GNGST,084726.40,0.021,0.013,0.008,100.655,0.008,0.013,0.014*43
$GPGGA,084726.50,5102.0327317,N,01344.3752575,E,4,12,0.93,116.4791,M,43.9322,M,1.5,0486*79
$GNGST,084726.50,0.021,0.013,0.008,100.658,0.008,0.013,0.014*4F
$GPGGA,084726.60,5102.0327297,N,01344.3752557,E,4,12,0.93,116.4799,M,43.9322,M,0.6,0486*79
$GNGST,084726.60,0.021,0.013,0.008,100.630,0.008,0.013,0.014*42
$GPGGA,084726.70,5102.0327307,N,01344.3752547,E,4,12,0.93,116.4867,M,43.9322,M,0.7,0486*7E
$GNGST,084726.70,0.019,0.011,0.007,99.641,0.008,0.011,0.014*70
$GPGGA,084726.80,5102.0327302,N,01344.3752560,E,4,12,0.93,116.4918,M,43.9322,M,0.8,0486*77
$GNGST,084726.80,0.019,0.011,0.007,99.646,0.008,0.011,0.014*78
$GPGGA,084726.90,5102.0327295,N,01344.3752577,E,4,11,0.93,116.4838,M,43.9322,M,0.9,0486*7E
$GNGST,084726.90,0.019,0.011,0.008,99.651,0.008,0.011,0.014*70
$GPGGA,084727.00,5102.0327317,N,01344.3752607,E,4,11,0.93,116.4792,M,43.9322,M,1.0,0486*7E
$GNGST,084727.00,0.019,0.011,0.008,99.656,0.008,0.011,0.014*7F
$GPGGA,084727.10,5102.0327325,N,01344.3752619,E,4,11,0.93,116.4821,M,43.9322,M,1.1,0486*77
$GNGST,084727.10,0.019,0.011,0.008,99.661,0.008,0.011,0.014*7A
$GPGGA,084727.20,5102.0327327,N,01344.3752603,E,4,11,0.93,116.4772,M,43.9322,M,1.2,0486*77
$GNGST,084727.20,0.019,0.011,0.008,99.666,0.008,0.011,0.014*7E
$GPGGA,084727.30,5102.0327330,N,01344.3752611,E,4,11,0.93,116.4883,M,43.9322,M,1.3,0486*73
$GNGST,084727.30,0.019,0.011,0.008,99.671,0.008,0.011,0.014*79
$GPGGA,084727.40,5102.0327320,N,01344.3752599,E,4,11,0.93,116.4858,M,43.9322,M,1.4,0486*77
$GNGST,084727.40,0.019,0.011,0.008,99.676,0.008,0.011,0.014*79
$GPGGA,084727.50,5102.0327316,N,01344.3752588,E,4,11,0.93,116.4885,M,43.9322,M,1.5,0486*72
$GNGST,084727.50,0.019,0.011,0.008,99.680,0.008,0.011,0.014*71
$GPGGA,084727.60,5102.0327318,N,01344.3752623,E,4,11,0.93,116.4792,M,43.9322,M,1.6,0486*77
$GNGST,084727.60,0.019,0.011,0.008,99.685,0.008,0.011,0.014*77
$GPGGA,084727.70,5102.0327338,N,01344.3752634,E,4,11,0.93,116.4889,M,43.9322,M,1.7,0486*76
$GNGST,084727.70,0.019,0.011,0.008,99.691,0.008,0.011,0.014*73
$GPGGA,084727.80,5102.0327341,N,01344.3752632,E,4,11,0.93,116.4908,M,43.9322,M,1.8,0486*76
$GNGST,084727.80,0.019,0.011,0.008,99.696,0.008,0.011,0.014*7B
$GPGGA,084727.90,5102.0327332,N,01344.3752624,E,4,11,0.93,116.4840,M,43.9322,M,1.9,0486*78
$GNGST,084727.90,0.019,0.011,0.008,99.701,0.008,0.011,0.014*75
$GPGGA,084728.00,5102.0327330,N,01344.3752588,E,4,11,0.93,116.4912,M,43.9322,M,2.0,0486*75
$GNGST,084728.00,0.020,0.011,0.008,99.706,0.008,0.011,0.014*7E
$GPGGA,084728.10,5102.0327357,N,01344.3752620,E,4,11,0.93,116.4893,M,43.9322,M,2.1,0486*7D
$GNGST,084728.10,0.020,0.011,0.008,99.711,0.008,0.011,0.014*79
$GPGGA,084728.20,5102.0327341,N,01344.3752604,E,4,11,0.93,116.4852,M,43.9322,M,2.2,0486*71
$GNGST,084728.20,0.020,0.011,0.008,99.716,0.008,0.011,0.014*7D
$GPGGA,084728.30,5102.0327326,N,01344.3752602,E,4,12,0.93,116.4873,M,43.9322,M,1.3,0486*75
$GNGST,084728.30,0.019,0.011,0.007,100.397,0.007,0.011,0.014*4A
$GPGGA,084728.40,5102.0327361,N,01344.3752622,E,4,12,0.93,116.4932,M,43.9322,M,1.4,0486*70
$GNGST,084728.40,0.019,0.011,0.007,100.399,0.007,0.011,0.014*43
$GPGGA,084728.50,5102.0327365,N,01344.3752625,E,4,12,0.93,116.4857,M,43.9322,M,1.5,0486*71
$GNGST,084728.50,0.019,0.011,0.007,100.401,0.007,0.011,0.014*44
$GPGGA,084728.60,5102.0327355,N,01344.3752627,E,4,12,0.93,116.4787,M,43.9322,M,0.6,0486*73
$GNGST,084728.60,0.019,0.011,0.007,100.383,0.007,0.011,0.014*4A
$GPGGA,084728.70,5102.0327334,N,01344.3752620,E,4,12,0.93,116.4784,M,43.9322,M,0.7,0486*70
$GNGST,084728.70,0.025,0.016,0.008,18.333,0.015,0.009,0.017*76
$GPGGA,084728.80,5102.0327324,N,01344.3752586,E,4,12,0.93,116.4818,M,43.9322,M,0.8,0486*74
$GNGST,084728.80,0.025,0.016,0.008,18.328,0.015,0.009,0.017*73
$GPGGA,084728.90,5102.0327344,N,01344.3752617,E,4,12,0.93,116.4787,M,43.9322,M,0.9,0486*70
$GNGST,084728.90,0.025,0.016,0.008,18.323,0.015,0.009,0.017*79
$GPGGA,084729.00,5102.0327330,N,01344.3752602,E,4,12,0.93,116.4755,M,43.9322,M,1.0,0486*78
$GNGST,084729.00,0.025,0.016,0.008,18.319,0.015,0.009,0.017*78
$GPGGA,084729.10,5102.0327336,N,01344.3752596,E,4,12,0.93,116.4766,M,43.9322,M,1.1,0486*70
$GNGST,084729.10,0.025,0.016,0.008,18.314,0.015,0.009,0.017*74
$GPGGA,084729.20,5102.0327320,N,01344.3752600,E,4,12,0.93,116.4772,M,43.9322,M,1.2,0486*7E
$GNGST,084729.20,0.025,0.016,0.008,18.309,0.015,0.009,0.017*7B
$GPGGA,084729.30,5102.0327341,N,01344.3752593,E,4,12,0.93,116.4808,M,43.9322,M,1.3,0486*72
$GNGST,084729.30,0.025,0.016,0.008,18.304,0.015,0.009,0.017*77
$GPGGA,084729.40,5102.0327350,N,01344.3752617,E,4,12,0.93,116.4823,M,43.9322,M,1.4,0486*74
$GNGST,084729.40,0.025,0.016,0.008,18.300,0.015,0.009,0.017*74
$GPGGA,084729.50,5102.0327357,N,01344.3752611,E,4,12,0.93,116.4824,M,43.9322,M,1.5,0486*72
$GNGST,084729.50,0.025,0.016,0.008,18.295,0.015,0.009,0.017*78
$GPGGA,084729.60,5102.0327366,N,01344.3752597,E,4,12,0.93,116.4859,M,43.9322,M,1.6,0486*77
$GNGST,084729.60,0.025,0.016,0.008,18.290,0.015,0.009,0.018*71
$GPGGA,084729.70,5102.0327367,N,01344.3752614,E,4,12,0.93,116.4870,M,43.9322,M,1.7,0486*75
$GNGST,084729.70,0.025,0.016,0.008,18.286,0.015,0.009,0.018*77
$GPGGA,084729.80,5102.0327352,N,01344.3752618,E,4,12,0.93,116.4779,M,43.9322,M,1.8,0486*79
$GNGST,084729.80,0.025,0.016,0.008,18.281,0.015,0.009,0.018*7F
$GPGGA,084729.90,5102.0327345,N,01344.3752592,E,4,12,0.93,116.4863,M,43.9322,M,1.9,0486*7A
$GNGST,084729.90,0.025,0.016,0.008,18.276,0.015,0.009,0.018*76
$GPGGA,084730.00,5102.0327352,N,01344.3752609,E,4,12,0.93,116.4822,M,43.9322,M,2.0,0486*73
$GNGST,084730.00,0.025,0.016,0.008,18.272,0.015,0.009,0.018*73
$GPGGA,084730.10,5102.0327354,N,01344.3752613,E,4,12,0.93,116.4806,M,43.9322,M,2.1,0486*78
$GNGST,084730.10,0.025,0.016,0.008,18.267,0.015,0.009,0.018*76
$GPGGA,084730.20,5102.0327352,N,01344.3752615,E,4,12,0.93,116.4839,M,43.9322,M,2.2,0486*74
$GNGST,084730.20,0.025,0.016,0.008,18.262,0.015,0.009,0.018*70
$GPGGA,084730.30,5102.0327340,N,01344.3752595,E,4,12,0.93,116.4773,M,43.9322,M,2.3,0486*7D
$GNGST,084730.30,0.025,0.016,0.008,18.258,0.015,0.009,0.018*78
$GPGGA,084730.40,5102.0327354,N,01344.3752581,E,4,12,0.93,116.4814,M,43.9322,M,2.4,0486*73
$GNGST,084730.40,0.025,0.016,0.008,18.253,0.015,0.009,0.018*74
$GPGGA,084730.50,5102.0327333,N,01344.3752598,E,4,12,0.93,116.4729,M,43.9322,M,2.5,0486*7B
$GNGST,084730.50,0.025,0.016,0.008,18.248,0.015,0.009,0.018*7F
$GPGGA,084730.60,5102.0327309,N,01344.3752622,E,4,12,0.93,116.4749,M,43.9322,M,2.6,0486*76
$GNGST,084730.60,0.025,0.016,0.008,18.244,0.015,0.009,0.018*70
$GPGGA,084730.70,5102.0327335,N,01344.3752621,E,4,12,0.93,116.4734,M,43.9322,M,2.7,0486*70
$GNGST,084730.70,0.025,0.016,0.008,18.239,0.015,0.009,0.018*7B
$GPGGA,084730.80,5102.0327324,N,01344.3752618,E,4,12,0.93,116.4790,M,43.9322,M,2.8,0486*74
$GNGST,084730.80,0.025,0.016,0.008,18.234,0.015,0.009,0.018*79
$GPGGA,084730.90,5102.0327326,N,01344.3752606,E,4,12,0.93,116.4813,M,43.9322,M,2.9,0486*7D
$GNGST,084730.90,0.025,0.016,0.008,18.230,0.015,0.009,0.018*7C
$GPGGA,084731.00,5102.0327329,N,01344.3752613,E,4,12,0.93,116.4747,M,43.9322,M,3.0,0486*78
$GNGST,084731.00,0.025,0.016,0.008,18.225,0.015,0.009,0.018*70
$GPGGA,084731.10,5102.0327324,N,01344.3752625,E,4,12,0.93,116.4734,M,43.9322,M,3.1,0486*74
$GNGST,084731.10,0.025,0.016,0.008,18.221,0.015,0.009,0.018*75
$GPGGA,084731.20,5102.0327350,N,01344.3752610,E,4,12,0.93,116.4781,M,43.9322,M,3.2,0486*7F
$GNGST,084731.20,0.025,0.016,0.008,18.216,0.015,0.009,0.018*72
$GPGGA,084731.30,5102.0327352,N,01344.3752605,E,4,12,0.93,116.4793,M,43.9322,M,3.3,0486*7A
$GNGST,084731.30,0.025,0.016,0.008,18.211,0.015,0.009,0.018*74
$GPGGA,084731.40,5102.0327344,N,01344.3752626,E,4,12,0.93,116.4845,M,43.9322,M,3.4,0486*78
$GNGST,084731.40,0.025,0.016,0.008,18.207,0.015,0.009,0.018*74
$GPGGA,084731.50,5102.0327354,N,01344.3752617,E,4,12,0.93,116.4841,M,43.9322,M,3.5,0486*7F
$GNGST,084731.50,0.026,0.016,0.008,18.202,0.015,0.009,0.018*73
$GPGGA,084731.60,5102.0327334,N,01344.3752583,E,4,12,0.93,116.4897,M,43.9322,M,3.6,0486*7C
$GNGST,084731.60,0.026,0.016,0.008,18.198,0.015,0.009,0.018*70
$GPGGA,084731.70,5102.0327355,N,01344.3752588,E,4,12,0.93,116.4889,M,43.9322,M,2.7,0486*7E
$GNGST,084731.70,0.025,0.016,0.008,18.239,0.015,0.009,0.018*7A
$GPGGA,084731.80,5102.0327354,N,01344.3752589,E,4,12,0.92,116.4972,M,43.9322,M,2.8,0486*7A
$GNGST,084731.80,0.023,0.013,0.011,89.338,0.011,0.013,0.015*74
$GPGGA,084731.90,5102.0327350,N,01344.3752610,E,4,12,0.92,116.4905,M,43.9322,M,1.9,0486*7E
$GNGST,084731.90,0.022,0.013,0.011,89.525,0.011,0.013,0.015*7E
$GPGGA,084732.00,5102.0327346,N,01344.3752592,E,4,12,0.92,116.4894,M,43.9322,M,2.0,0486*79
$GNGST,084732.00,0.020,0.012,0.008,103.743,0.008,0.012,0.014*46
$GPGGA,084732.10,5102.0327339,N,01344.3752609,E,4,12,0.92,116.4859,M,43.9322,M,1.1,0486*72
$GNGST,084732.10,0.020,0.012,0.007,103.691,0.008,0.012,0.014*46
$GPGGA,084732.20,5102.0327317,N,01344.3752605,E,4,12,0.92,116.4812,M,43.9322,M,1.2,0486*7D
$GNGST,084732.20,0.023,0.014,0.011,93.716,0.011,0.014,0.015*7E
$GPGGA,084732.30,5102.0327325,N,01344.3752613,E,4,12,0.92,116.4772,M,43.9322,M,1.3,0486*72
$GNGST,084732.30,0.023,0.014,0.011,93.708,0.011,0.014,0.015*70
$GPGGA,084732.40,5102.0327324,N,01344.3752623,E,4,12,0.92,116.4779,M,43.9322,M,1.4,0486*7B
$GNGST,084732.40,0.023,0.014,0.011,93.700,0.011,0.014,0.015*7F
$GPGGA,084732.50,5102.0327333,N,01344.3752594,E,4,12,0.92,116.4815,M,43.9322,M,1.5,0486*77
$GNGST,084732.50,0.023,0.014,0.011,93.692,0.011,0.014,0.015*74
$GPGGA,084732.60,5102.0327340,N,01344.3752571,E,4,12,0.92,116.4838,M,43.9322,M,1.6,0486*77
$GNGST,084732.60,0.023,0.014,0.011,93.684,0.011,0.014,0.015*70
$GPGGA,084732.70,5102.0327334,N,01344.3752583,E,4,12,0.92,116.4828,M,43.9322,M,1.7,0486*78
$GNGST,084732.70,0.023,0.014,0.011,93.675,0.011,0.014,0.015*7F
$GPGGA,084732.80,5102.0327323,N,01344.3752583,E,4,12,0.92,116.4818,M,43.9322,M,1.8,0486*7D
$GNGST,084732.80,0.023,0.014,0.011,93.667,0.011,0.014,0.015*73
$GPGGA,084732.90,5102.0327331,N,01344.3752621,E,4,12,0.92,116.4826,M,43.9322,M,0.9,0486*79
$GNGST,084732.90,0.020,0.012,0.009,97.382,0.009,0.012,0.014*7A
$GPGGA,084733.00,5102.0327342,N,01344.3752613,E,4,12,0.92,116.4875,M,43.9322,M,1.0,0486*7A
$GNGST,084733.00,0.020,0.012,0.009,97.378,0.009,0.012,0.014*77
$GPGGA,084733.10,5102.0327350,N,01344.3752629,E,4,12,0.92,116.4860,M,43.9322,M,1.1,0486*74
$GNGST,084733.10,0.020,0.012,0.009,97.374,0.009,0.012,0.014*7A
$GPGGA,084733.20,5102.0327353,N,01344.3752610,E,4,12,0.92,116.4862,M,43.9322,M,1.2,0486*7F
$GNGST,084733.20,0.020,0.012,0.009,97.370,0.009,0.012,0.014*7D
$GPGGA,084733.30,5102.0327345,N,01344.3752598,E,4,12,0.92,116.4891,M,43.9322,M,1.3,0486*77
$GNGST,084733.30,0.020,0.012,0.009,97.366,0.009,0.012,0.014*7B
$GPGGA,084733.40,5102.0327360,N,01344.3752619,E,4,12,0.92,116.4941,M,43.9322,M,1.4,0486*76
$GNGST,084733.40,0.020,0.012,0.009,97.362,0.009,0.012,0.014*78
$GPGGA,084733.50,5102.0327352,N,01344.3752636,E,4,12,0.92,116.4903,M,43.9322,M,1.5,0486*7C
$GNGST,084733.50,0.020,0.012,0.009,97.358,0.009,0.012,0.014*70
$GPGGA,084733.60,5102.0327350,N,01344.3752632,E,4,12,0.92,116.4913,M,43.9322,M,0.6,0486*7A
$GNGST,084733.60,0.020,0.012,0.009,97.394,0.009,0.012,0.014*73
$GPGGA,084733.70,5102.0327376,N,01344.3752598,E,4,13,0.89,116.5029,M,43.9322,M,0.7,0486*77
$GNGST,084733.70,0.035,0.022,0.014,11.280,0.022,0.014,0.024*7F
$GPGGA,084733.80,5102.0327374,N,01344.3752625,E,4,13,0.89,116.4980,M,43.9322,M,0.8,0486*7B
$GNGST,084733.80,0.035,0.022,0.014,11.280,0.022,0.014,0.024*70
$GPGGA,084733.90,5102.0327370,N,01344.3752625,E,4,13,0.89,116.4972,M,43.9322,M,0.9,0486*72
$GNGST,084733.90,0.035,0.022,0.014,11.280,0.022,0.014,0.024*71
$GPGGA,084734.00,5102.0327363,N,01344.3752653,E,4,13,0.89,116.4925,M,43.9322,M,1.0,0486*75
$GNGST,084734.00,0.035,0.022,0.014,11.281,0.022,0.014,0.024*7E
$GPGGA,084734.10,5102.0327373,N,01344.3752617,E,4,13,0.89,116.5012,M,43.9322,M,1.1,0486*78
$GNGST,084734.10,0.035,0.022,0.014,11.281,0.022,0.014,0.024*7F
$GPGGA,084734.20,5102.0327384,N,01344.3752614,E,4,13,0.89,116.5050,M,43.9322,M,1.2,0486*75
$GNGST,084734.20,0.035,0.022,0.014,11.281,0.022,0.014,0.024*7C
$GPGGA,084734.30,5102.0327373,N,01344.3752632,E,4,13,0.89,116.5005,M,43.9322,M,1.3,0486*79
$GNGST,084734.30,0.035,0.022,0.014,11.282,0.022,0.014,0.024*7E
$GPGGA,084734.40,5102.0327362,N,01344.3752646,E,4,13,0.89,116.4920,M,43.9322,M,1.4,0486*75
$GNGST,084734.40,0.035,0.022,0.014,11.282,0.022,0.014,0.024*79
$GPGGA,084734.50,5102.0327349,N,01344.3752616,E,4,13,0.89,116.4916,M,43.9322,M,1.5,0486*7C
$GNGST,084734.50,0.035,0.022,0.014,11.282,0.022,0.014,0.024*78
$GPGGA,084734.60,5102.0327361,N,01344.3752634,E,4,13,0.89,116.4919,M,43.9322,M,1.6,0486*79
$GNGST,084734.60,0.035,0.022,0.014,11.283,0.022,0.014,0.024*7A
$GPGGA,084734.70,5102.0327381,N,01344.3752610,E,4,13,0.89,116.4986,M,43.9322,M,1.7,0486*77
$GNGST,084734.70,0.035,0.022,0.014,11.283,0.022,0.014,0.024*7B
$GPGGA,084734.80,5102.0327375,N,01344.3752618,E,4,13,0.89,116.4885,M,43.9322,M,1.8,0486*76
$GNGST,084734.80,0.035,0.022,0.014,11.284,0.022,0.014,0.024*73
$GPGGA,084734.90,5102.0327368,N,01344.3752621,E,4,13,0.89,116.4877,M,43.9322,M,1.9,0486*7D
$GNGST,084734.90,0.035,0.022,0.014,11.284,0.022,0.014,0.024*72
$GPGGA,084735.00,5102.0327375,N,01344.3752619,E,4,13,0.89,116.4958,M,43.9322,M,2.0,0486*74
$GNGST,084735.00,0.035,0.022,0.014,11.284,0.022,0.014,0.024*7A
$GPGGA,084735.10,5102.0327392,N,01344.3752605,E,4,13,0.89,116.5044,M,43.9322,M,2.1,0486*75
$GNGST,084735.10,0.035,0.022,0.014,11.285,0.022,0.014,0.024*7A
$GPGGA,084735.20,5102.0327376,N,01344.3752607,E,4,13,0.89,116.5018,M,43.9322,M,2.2,0486*74
$GNGST,084735.20,0.035,0.022,0.014,11.285,0.022,0.014,0.024*79
$GPGGA,084735.30,5102.0327374,N,01344.3752580,E,4,13,0.89,116.5004,M,43.9322,M,2.3,0486*77
$GNGST,084735.30,0.035,0.022,0.014,11.285,0.022,0.014,0.024*78
$GPGGA,084735.40,5102.0327372,N,01344.3752590,E,4,13,0.89,116.4926,M,43.9322,M,2.4,0486*78
$GNGST,084735.40,0.035,0.022,0.014,11.286,0.022,0.014,0.024*7C
$GPGGA,084735.50,5102.0327385,N,01344.3752609,E,4,13,0.89,116.4995,M,43.9322,M,2.5,0486*7B
$GNGST,084735.50,0.035,0.022,0.014,11.286,0.022,0.014,0.024*7D
$GPGGA,084735.60,5102.0327379,N,01344.3752597,E,4,13,0.89,116.4953,M,43.9322,M,2.6,0486*76
$GNGST,084735.60,0.035,0.022,0.014,11.286,0.022,0.014,0.024*7E
$GPGGA,084735.70,5102.0327376,N,01344.3752579,E,4,13,0.89,116.4935,M,43.9322,M,2.7,0486*79
$GNGST,084735.70,0.035,0.022,0.014,11.287,0.022,0.014,0.024*7E
$GPGGA,084735.80,5102.0327360,N,01344.3752587,E,4,13,0.89,116.4906,M,43.9322,M,2.8,0486*7F
$GNGST,084735.80,0.035,0.022,0.014,11.287,0.022,0.014,0.024*71
$GPGGA,084735.90,5102.0327369,N,01344.3752565,E,4,13,0.89,116.4925,M,43.9322,M,2.9,0486*7B
$GNGST,084735.90,0.035,0.022,0.014,11.288,0.022,0.014,0.024*7F
$GPGGA,084736.00,5102.0327364,N,01344.3752580,E,4,13,0.89,116.4858,M,43.9322,M,3.0,0486*74
$GNGST,084736.00,0.035,0.022,0.014,11.288,0.022,0.014,0.024*75
$GPGGA,084736.10,5102.0327388,N,01344.3752593,E,4,13,0.89,116.4847,M,43.9322,M,3.1,0486*7A
$GNGST,084736.10,0.035,0.022,0.014,11.288,0.022,0.014,0.024*74
$GPGGA,084736.20,5102.0327374,N,01344.3752584,E,4,13,0.89,116.4890,M,43.9322,M,3.2,0486*75
$GNGST,084736.20,0.035,0.022,0.014,11.289,0.022,0.014,0.024*76
$GPGGA,084736.30,5102.0327367,N,01344.3752572,E,4,13,0.89,116.4970,M,43.9322,M,2.3,0486*70
$GNGST,084736.30,0.025,0.018,0.010,99.579,0.010,0.018,0.014*7D
$GPGGA,084736.40,5102.0327381,N,01344.3752545,E,4,13,0.89,116.5001,M,43.9322,M,2.4,0486*72
$GNGST,084736.40,0.025,0.018,0.010,99.577,0.010,0.018,0.014*74
$GPGGA,084736.50,5102.0327367,N,01344.3752588,E,4,13,0.89,116.4907,M,43.9322,M,2.5,0486*75
$GNGST,084736.50,0.025,0.018,0.010,99.575,0.010,0.018,0.014*77
$GPGGA,084736.60,5102.0327374,N,01344.3752584,E,4,13,0.89,116.4947,M,43.9322,M,2.6,0486*7F
$GNGST,084736.60,0.025,0.018,0.010,99.574,0.010,0.018,0.014*75
$GPGGA,084736.70,5102.0327374,N,01344.3752594,E,4,13,0.89,116.4931,M,43.9322,M,2.7,0486*7F
$GNGST,084736.70,0.025,0.018,0.010,99.572,0.010,0.018,0.014*72
$GPGGA,084736.80,5102.0327369,N,01344.3752575,E,4,13,0.88,116.4936,M,43.9322,M,1.8,0486*79
$GNGST,084736.80,0.032,0.017,0.017,136.157,0.017,0.017,0.020*4B
$GPGGA,084736.90,5102.0327387,N,01344.3752595,E,4,13,0.88,116.4981,M,43.9322,M,1.9,0486*7B
$GNGST,084736.90,0.032,0.017,0.017,136.863,0.017,0.017,0.021*45
$GPGGA,084737.00,5102.0327380,N,01344.3752642,E,4,13,0.93,116.4841,M,43.9322,M,1.0,0486*73
$GNGST,084737.00,0.031,0.020,0.011,15.576,0.019,0.012,0.021*7E
$GPGGA,084737.10,5102.0327384,N,01344.3752657,E,4,13,0.93,116.4778,M,43.9322,M,1.1,0486*76
$GNGST,084737.10,0.031,0.020,0.011,15.579,0.019,0.012,0.021*70
$GPGGA,084737.20,5102.0327408,N,01344.3752660,E,4,13,0.93,116.4787,M,43.9322,M,1.2,0486*71
$GNGST,084737.20,0.031,0.020,0.011,15.582,0.019,0.012,0.021*77
$GPGGA,084737.30,5102.0327385,N,01344.3752648,E,4,13,0.93,116.4815,M,43.9322,M,1.3,0486*7D
$GNGST,084737.30,0.031,0.020,0.011,15.585,0.019,0.012,0.021*71
$GPGGA,084737.40,5102.0327379,N,01344.3752613,E,4,13,0.93,116.4900,M,43.9322,M,1.4,0486*75
$GNGST,084737.40,0.031,0.020,0.011,15.588,0.019,0.012,0.021*7B
$GPGGA,084737.50,5102.0327390,N,01344.3752643,E,4,13,0.93,116.4843,M,43.9322,M,1.5,0486*71
$GNGST,084737.50,0.031,0.020,0.011,15.591,0.019,0.012,0.021*72
$GPGGA,084737.60,5102.0327387,N,01344.3752643,E,4,13,0.93,116.4844,M,43.9322,M,0.6,0486*71
$GNGST,084737.60,0.031,0.020,0.011,15.564,0.019,0.012,0.021*7B
$GPGGA,084737.70,5102.0327402,N,01344.3752656,E,4,13,0.91,116.4871,M,43.9322,M,0.7,0486*7B
$GNGST,084737.70,0.029,0.019,0.013,25.230,0.018,0.014,0.018*73
$GPGGA,084737.80,5102.0327395,N,01344.3752660,E,4,13,0.91,116.4887,M,43.9322,M,0.8,0486*7E
$GNGST,084737.80,0.029,0.019,0.013,25.234,0.018,0.014,0.018*78
$GPGGA,084737.90,5102.0327389,N,01344.3752639,E,4,13,0.91,116.4849,M,43.9322,M,0.9,0486*7D
$GNGST,084737.90,0.029,0.019,0.013,25.239,0.018,0.014,0.018*74
$GPGGA,084738.00,5102.0327396,N,01344.3752610,E,4,13,0.91,116.4859,M,43.9322,M,1.0,0486*77
$GNGST,084738.00,0.029,0.019,0.013,25.243,0.018,0.014,0.018*7F
$GPGGA,084738.10,5102.0327423,N,01344.3752675,E,4,13,0.91,116.4798,M,43.9322,M,1.1,0486*7F
$GNGST,084738.10,0.029,0.019,0.013,25.247,0.018,0.014,0.018*7A
$GPGGA,084738.20,5102.0327387,N,01344.3752630,E,4,13,0.91,116.4903,M,43.9322,M,1.2,0486*7B
$GNGST,084738.20,0.029,0.019,0.013,25.252,0.018,0.014,0.018*7D
$GPGGA,084738.30,5102.0327415,N,01344.3752642,E,4,13,0.91,116.4809,M,43.9322,M,1.3,0486*79
$GNGST,084738.30,0.029,0.019,0.013,25.256,0.018,0.014,0.018*78
$GPGGA,084738.40,5102.0327405,N,01344.3752650,E,4,13,0.91,116.4883,M,43.9322,M,1.4,0486*79
$GNGST,084738.40,0.029,0.019,0.013,25.261,0.018,0.015,0.018*7A
$GPGGA,084738.50,5102.0327403,N,01344.3752611,E,4,13,0.91,116.4931,M,43.9322,M,1.5,0486*72
$GNGST,084738.50,0.029,0.019,0.013,25.265,0.018,0.015,0.018*7F
$GPGGA,084738.60,5102.0327375,N,01344.3752608,E,4,13,0.91,116.4881,M,43.9322,M,0.6,0486*77
$GNGST,084738.60,0.029,0.019,0.013,25.225,0.018,0.014,0.018*79
$GPGGA,084738.70,5102.0327403,N,01344.3752622,E,4,13,0.91,116.4914,M,43.9322,M,0.7,0486*74
$GNGST,084738.70,0.024,0.014,0.010,22.370,0.014,0.011,0.016*7A
$GPGGA,084738.80,5102.0327398,N,01344.3752641,E,4,13,0.91,116.4806,M,43.9322,M,0.8,0486*76
$GNGST,084738.80,0.024,0.014,0.010,22.379,0.014,0.011,0.016*7C
$GPGGA,084738.90,5102.0327370,N,01344.3752608,E,4,13,0.91,116.4867,M,43.9322,M,0.9,0486*7A
$GNGST,084738.90,0.024,0.014,0.010,22.388,0.014,0.011,0.016*73
$GPGGA,084739.00,5102.0327379,N,01344.3752655,E,4,13,0.91,116.4787,M,43.9322,M,1.0,0486*7A
$GNGST,084739.00,0.024,0.014,0.010,22.397,0.014,0.011,0.016*75
$GPGGA,084739.10,5102.0327378,N,01344.3752623,E,4,13,0.91,116.4828,M,43.9322,M,1.1,0486*70
$GNGST,084739.10,0.024,0.014,0.010,22.406,0.014,0.011,0.016*7B
$GPGGA,084739.20,5102.0327389,N,01344.3752652,E,4,13,0.91,116.4748,M,43.9322,M,1.2,0486*71
$GNGST,084739.20,0.024,0.014,0.010,22.415,0.014,0.011,0.016*7A
$GPGGA,084739.30,5102.0327370,N,01344.3752656,E,4,13,0.91,116.4742,M,43.9322,M,1.3,0486*79
$GNGST,084739.30,0.024,0.014,0.010,22.424,0.014,0.011,0.016*79
$GPGGA,084739.40,5102.0327377,N,01344.3752651,E,4,13,0.91,116.4768,M,43.9322,M,1.4,0486*71
$GNGST,084739.40,0.024,0.014,0.010,22.433,0.014,0.011,0.016*78
$GPGGA,084739.50,5102.0327371,N,01344.3752630,E,4,13,0.91,116.4837,M,43.9322,M,1.5,0486*75
$GNGST,084739.50,0.024,0.014,0.010,22.442,0.014,0.011,0.016*7F
$GPGGA,084739.60,5102.0327391,N,01344.3752639,E,4,13,0.91,116.4893,M,43.9322,M,1.6,0486*7C
$GNGST,084739.60,0.024,0.014,0.010,22.451,0.014,0.011,0.016*7E
$GPGGA,084739.70,5102.0327388,N,01344.3752625,E,4,13,0.91,116.4887,M,43.9322,M,1.7,0486*7C
$GNGST,084739.70,0.024,0.014,0.010,22.459,0.014,0.011,0.016*77
$GPGGA,084739.80,5102.0327381,N,01344.3752658,E,4,13,0.91,116.4821,M,43.9322,M,1.8,0486*73
$GNGST,084739.80,0.024,0.014,0.010,22.468,0.014,0.011,0.016*7A
$GPGGA,084739.90,5102.0327392,N,01344.3752655,E,4,13,0.91,116.4852,M,43.9322,M,1.9,0486*78
$GNGST,084739.90,0.024,0.014,0.010,22.477,0.014,0.011,0.016*75
$GPGGA,084740.00,5102.0327394,N,01344.3752651,E,4,13,0.91,116.4854,M,43.9322,M,2.0,0486*71
$GNGST,084740.00,0.024,0.014,0.010,22.486,0.014,0.011,0.016*7C
$GPGGA,084740.10,5102.0327392,N,01344.3752668,E,4,13,0.91,116.4771,M,43.9322,M,2.1,0486*75
$GNGST,084740.10,0.024,0.014,0.010,22.495,0.014,0.011,0.017*7E
$GPGGA,084740.20,5102.0327387,N,01344.3752657,E,4,13,0.91,116.4776,M,43.9322,M,1.2,0486*79
$GNGST,084740.20,0.024,0.014,0.010,22.415,0.014,0.011,0.016*74
$GPGGA,084740.30,5102.0327385,N,01344.3752657,E,4,13,0.90,116.4805,M,43.9322,M,1.3,0486*71
$GNGST,084740.30,0.031,0.019,0.016,29.858,0.018,0.016,0.019*70
$GPGGA,084740.40,5102.0327406,N,01344.3752647,E,4,13,0.90,116.4845,M,43.9322,M,1.4,0486*78
$GNGST,084740.40,0.031,0.019,0.016,29.859,0.018,0.016,0.019*76
$GPGGA,084740.50,5102.0327385,N,01344.3752643,E,4,13,0.90,116.4867,M,43.9322,M,1.5,0486*70
$GNGST,084740.50,0.031,0.019,0.016,29.860,0.018,0.016,0.019*7D
$GPGGA,084740.60,5102.0327401,N,01344.3752681,E,4,13,0.90,116.4789,M,43.9322,M,0.6,0486*7B
$GNGST,084740.60,0.031,0.019,0.016,29.851,0.018,0.016,0.019*7C
$GPGGA,084740.70,5102.0327408,N,01344.3752648,E,4,13,0.90,116.4947,M,43.9322,M,0.7,0486*7B
$GNGST,084740.70,0.028,0.017,0.012,16.762,0.016,0.013,0.019*77
$GPGGA,084740.80,5102.0327412,N,01344.3752656,E,4,13,0.90,116.4838,M,43.9322,M,0.8,0486*76
$GNGST,084740.80,0.028,0.017,0.012,16.771,0.016,0.013,0.019*7A
$GPGGA,084740.90,5102.0327395,N,01344.3752635,E,4,13,0.90,116.4869,M,43.9322,M,0.9,0486*7F
$GNGST,084740.90,0.028,0.017,0.012,16.780,0.016,0.013,0.019*75
$GPGGA,084741.00,5102.0327409,N,01344.3752652,E,4,13,0.90,116.4814,M,43.9322,M,1.0,0486*76
$GNGST,084741.00,0.028,0.017,0.012,16.788,0.016,0.013,0.019*75
$GPGGA,084741.10,5102.0327411,N,01344.3752658,E,4,13,0.90,116.4867,M,43.9322,M,1.1,0486*71
$GNGST,084741.10,0.028,0.017,0.012,16.797,0.016,0.013,0.019*7A
$GPGGA,084741.20,5102.0327405,N,01344.3752664,E,4,13,0.90,116.4793,M,43.9322,M,1.2,0486*7F
$GNGST,084741.20,0.028,0.017,0.012,16.806,0.016,0.013,0.019*7E
$GPGGA,084741.30,5102.0327413,N,01344.3752646,E,4,13,0.90,116.4855,M,43.9322,M,1.3,0486*7D
$GNGST,084741.30,0.028,0.017,0.012,16.815,0.016,0.013,0.019*7D
$GPGGA,084741.40,5102.0327406,N,01344.3752669,E,4,13,0.90,116.4827,M,43.9322,M,1.4,0486*71
$GNGST,084741.40,0.028,0.017,0.012,16.823,0.016,0.013,0.019*7F
$GPGGA,084741.50,5102.0327416,N,01344.3752616,E,4,13,0.90,116.4876,M,43.9322,M,1.5,0486*7C
$GNGST,084741.50,0.028,0.017,0.012,16.832,0.016,0.013,0.019*7E
$GPGGA,084741.60,5102.0327417,N,01344.3752618,E,4,13,0.90,116.4902,M,43.9322,M,0.6,0486*70
$GNGST,084741.60,0.028,0.017,0.012,16.753,0.016,0.013,0.019*75
$GPGGA,084741.70,5102.0327404,N,01344.3752605,E,4,14,0.79,116.5091,M,43.9322,M,0.7,0486*7C
$GNGST,084741.70,0.023,0.015,0.011,95.161,0.011,0.015,0.013*79
$GPGGA,084741.80,5102.0327386,N,01344.3752611,E,4,14,0.79,116.4983,M,43.9322,M,0.8,0486*7F
$GNGST,084741.80,0.023,0.015,0.011,95.162,0.011,0.015,0.013*75
$GPGGA,084741.90,5102.0327382,N,01344.3752588,E,4,14,0.79,116.4969,M,43.9322,M,0.9,0486*7C
$GNGST,084741.90,0.023,0.015,0.011,95.162,0.011,0.015,0.013*74
$GPGGA,084742.00,5102.0327386,N,01344.3752598,E,4,14,0.79,116.5037,M,43.9322,M,1.0,0486*78
$GNGST,084742.00,0.023,0.015,0.011,95.162,0.011,0.015,0.013*7E
$GPGGA,084742.10,5102.0327379,N,01344.3752593,E,4,14,0.79,116.5060,M,43.9322,M,1.1,0486*71
$GNGST,084742.10,0.023,0.015,0.011,95.163,0.011,0.015,0.013*7E
$GPGGA,084742.20,5102.0327371,N,01344.3752607,E,4,14,0.79,116.5011,M,43.9322,M,1.2,0486*71
$GNGST,084742.20,0.023,0.015,0.011,95.163,0.011,0.015,0.013*7D
$GPGGA,084742.30,5102.0327396,N,01344.3752601,E,4,14,0.79,116.4971,M,43.9322,M,1.3,0486*70
$GNGST,084742.30,0.023,0.015,0.011,95.164,0.011,0.015,0.013*7B
$GPGGA,084742.40,5102.0327381,N,01344.3752582,E,4,14,0.79,116.4979,M,43.9322,M,1.4,0486*76
$GNGST,084742.40,0.023,0.015,0.011,95.164,0.011,0.015,0.013*7C
$GPGGA,084742.50,5102.0327387,N,01344.3752613,E,4,14,0.79,116.4962,M,43.9322,M,1.5,0486*71
$GNGST,084742.50,0.023,0.015,0.011,95.165,0.011,0.015,0.013*7C
$GPGGA,084742.60,5102.0327386,N,01344.3752578,E,4,14,0.79,116.5027,M,43.9322,M,0.6,0486*76
$GNGST,084742.60,0.023,0.014,0.012,88.995,0.012,0.014,0.013*74
$GPGGA,084742.70,5102.0327399,N,01344.3752595,E,4,14,0.79,116.5056,M,43.9322,M,0.7,0486*7D
$GNGST,084742.70,0.023,0.014,0.012,88.991,0.012,0.014,0.013*71
$GPGGA,084742.80,5102.0327404,N,01344.3752573,E,4,14,0.79,116.5046,M,43.9322,M,0.8,0486*77
$GNGST,084742.80,0.023,0.014,0.012,88.987,0.012,0.014,0.013*79
$GPGGA,084742.90,5102.0327398,N,01344.3752583,E,4,14,0.79,116.5047,M,43.9322,M,0.9,0486*7B
$GNGST,084742.90,0.023,0.014,0.012,88.983,0.012,0.014,0.013*7C
$GPGGA,084743.00,5102.0327410,N,01344.3752597,E,4,14,0.79,116.5001,M,43.9322,M,1.0,0486*7B
$GNGST,084743.00,0.023,0.014,0.012,88.980,0.012,0.014,0.014*70
$GPGGA,084743.10,5102.0327413,N,01344.3752623,E,4,14,0.79,116.4964,M,43.9322,M,1.1,0486*7F
$GNGST,084743.10,0.023,0.014,0.012,88.976,0.012,0.014,0.014*78
$GPGGA,084743.20,5102.0327413,N,01344.3752609,E,4,14,0.79,116.5005,M,43.9322,M,1.2,0486*78
$GNGST,084743.20,0.023,0.014,0.012,88.972,0.012,0.014,0.014*7F
$GPGGA,084743.30,5102.0327415,N,01344.3752624,E,4,14,0.79,116.4980,M,43.9322,M,1.3,0486*74
$GNGST,084743.30,0.023,0.014,0.012,88.968,0.012,0.014,0.014*75
$GPGGA,084743.40,5102.0327408,N,01344.3752603,E,4,14,0.79,116.5021,M,43.9322,M,1.4,0486*7E
$GNGST,084743.40,0.023,0.014,0.012,88.964,0.012,0.014,0.014*7E
$GPGGA,084743.50,5102.0327427,N,01344.3752619,E,4,14,0.79,116.5030,M,43.9322,M,1.5,0486*78
$GNGST,084743.50,0.023,0.014,0.012,88.960,0.012,0.014,0.014*7B
$GPGGA,084743.60,5102.0327415,N,01344.3752581,E,4,14,0.79,116.5075,M,43.9322,M,0.6,0486*7B
$GNGST,084743.60,0.020,0.013,0.010,97.691,0.010,0.013,0.013*73
$GPGGA,084743.70,5102.0327411,N,01344.3752603,E,4,14,0.79,116.5060,M,43.9322,M,0.7,0486*72
$GNGST,084743.70,0.020,0.013,0.010,97.693,0.010,0.013,0.013*70
$GPGGA,084743.80,5102.0327407,N,01344.3752584,E,4,14,0.79,116.5068,M,43.9322,M,0.8,0486*71
$GNGST,084743.80,0.020,0.013,0.010,97.696,0.010,0.013,0.013*7A
$GPGGA,084743.90,5102.0327393,N,01344.3752603,E,4,14,0.79,116.5012,M,43.9322,M,0.9,0486*7A
$GNGST,084743.90,0.020,0.013,0.010,97.698,0.010,0.013,0.013*75
$GPGGA,084744.00,5102.0327409,N,01344.3752599,E,4,14,0.79,116.5033,M,43.9322,M,1.0,0486*7B
$GNGST,084744.00,0.020,0.013,0.010,97.700,0.010,0.013,0.013*7B
$GPGGA,084744.10,5102.0327405,N,01344.3752581,E,4,14,0.79,116.5016,M,43.9322,M,1.1,0486*79
$GNGST,084744.10,0.020,0.013,0.010,97.702,0.010,0.013,0.013*78
$GPGGA,084744.20,5102.0327404,N,01344.3752604,E,4,14,0.79,116.4903,M,43.9322,M,1.2,0486*7A
$GNGST,084744.20,0.021,0.013,0.010,97.705,0.010,0.013,0.013*7D
$GPGGA,084744.30,5102.0327399,N,01344.3752594,E,4,14,0.79,116.4981,M,43.9322,M,1.3,0486*79
$GNGST,084744.30,0.021,0.013,0.010,97.707,0.010,0.013,0.013*7E
$GPGGA,084744.40,5102.0327392,N,01344.3752560,E,4,14,0.79,116.4991,M,43.9322,M,1.4,0486*78
$GNGST,084744.40,0.021,0.013,0.010,97.709,0.010,0.013,0.013*77
$GPGGA,084744.50,5102.0327387,N,01344.3752580,E,4,14,0.79,116.5022,M,43.9322,M,1.5,0486*72
$GNGST,084744.50,0.021,0.013,0.010,97.711,0.010,0.013,0.013*7F
$GPGGA,084744.60,5102.0327379,N,01344.3752577,E,4,14,0.79,116.5102,M,43.9322,M,1.6,0486*78
$GNGST,084744.60,0.021,0.013,0.010,97.714,0.010,0.013,0.013*79
