$GPGGA,094814.40,5104.6852091,N,01345.1067321,E,5,15,0.95,130.7952,M,43.8438,M,1.4,0548*7F
$GNGST,094814.40,1.194,0.250,0.027,145.728,0.208,0.143,1.167*42
$GPGGA,094814.50,5104.6852077,N,01345.1067351,E,5,15,0.95,130.7811,M,43.8438,M,1.5,0548*76
$GNGST,094814.50,1.198,0.251,0.027,145.728,0.208,0.143,1.171*49
$GPGGA,094814.60,5104.6852059,N,01345.1067367,E,5,15,0.95,130.7693,M,43.8438,M,1.6,0548*7B
$GNGST,094814.60,1.201,0.252,0.028,145.728,0.209,0.144,1.174*46
$GPGGA,094814.70,5104.6852050,N,01345.1067398,E,5,15,0.95,130.7682,M,43.8438,M,0.7,0548*73
$GNGST,094814.70,1.165,0.244,0.027,145.737,0.203,0.139,1.138*48
$GPGGA,094814.80,5104.6852028,N,01345.1067436,E,5,15,0.95,130.7626,M,43.8438,M,0.8,0548*71
$GNGST,094814.80,1.164,0.244,0.027,145.750,0.202,0.139,1.137*49
$GPGGA,094814.90,5104.6852070,N,01345.1067422,E,5,15,0.95,130.7832,M,43.8438,M,0.9,0548*72
$GNGST,094814.90,1.167,0.245,0.027,145.750,0.203,0.140,1.141*44
$GPGGA,094815.00,5104.6852072,N,01345.1067422,E,5,15,0.95,130.7884,M,43.8438,M,1.0,0548*7D
$GNGST,094815.00,1.171,0.246,0.027,145.750,0.204,0.140,1.145*4B
$GPGGA,094815.10,5104.6852075,N,01345.1067436,E,5,15,0.95,130.7867,M,43.8438,M,1.1,0548*72
$GNGST,094815.10,1.175,0.246,0.027,145.750,0.204,0.140,1.148*43
$GPGGA,094815.20,5104.6852082,N,01345.1067419,E,5,15,0.95,130.7930,M,43.8438,M,1.2,0548*74
$GNGST,094815.20,1.178,0.247,0.027,145.750,0.205,0.141,1.152*47
$GPGGA,094815.30,5104.6852103,N,01345.1067407,E,5,15,0.95,130.8041,M,43.8438,M,1.3,0548*73
$GNGST,094815.30,1.182,0.248,0.027,145.750,0.206,0.141,1.155*48
$GPGGA,094815.40,5104.6852076,N,01345.1067436,E,5,15,0.95,130.7870,M,43.8438,M,1.4,0548*77
$GNGST,094815.40,1.186,0.249,0.027,145.750,0.206,0.142,1.159*45
$GPGGA,094815.50,5104.6852060,N,01345.1067437,E,5,15,0.95,130.7804,M,43.8438,M,1.5,0548*72
$GNGST,094815.50,1.189,0.249,0.027,145.750,0.207,0.142,1.162*42
$GPGGA,094815.60,5104.6852056,N,01345.1067432,E,5,15,0.95,130.7977,M,43.8438,M,0.6,0548*76
$GNGST,094815.60,1.153,0.242,0.026,145.752,0.200,0.138,1.127*45
$GPGGA,094815.70,5104.6852024,N,01345.1067487,E,5,15,0.95,130.7832,M,43.8438,M,0.7,0548*7D
$GNGST,094815.70,1.152,0.242,0.026,145.765,0.200,0.138,1.126*40
$GPGGA,094815.80,5104.6852027,N,01345.1067487,E,5,15,0.95,130.7845,M,43.8438,M,0.8,0548*7E
$GNGST,094815.80,1.155,0.242,0.026,145.765,0.201,0.138,1.129*46
$GPGGA,094815.90,5104.6852042,N,01345.1067480,E,5,15,0.95,130.7968,M,43.8438,M,0.9,0548*74
$GNGST,094815.90,1.159,0.243,0.027,145.765,0.202,0.139,1.133*42
$GPGGA,094816.00,5104.6852038,N,01345.1067490,E,5,15,0.95,130.7907,M,43.8438,M,1.0,0548*73
$GNGST,094816.00,1.163,0.244,0.027,145.765,0.202,0.139,1.137*42
$GPGGA,094816.10,5104.6852049,N,01345.1067505,E,5,15,0.95,130.7927,M,43.8438,M,1.1,0548*7A
$GNGST,094816.10,1.166,0.245,0.027,145.765,0.203,0.139,1.140*46
$GPGGA,094816.20,5104.6852032,N,01345.1067503,E,5,15,0.95,130.7901,M,43.8438,M,1.2,0548*74
$GNGST,094816.20,1.170,0.245,0.027,145.765,0.203,0.140,1.144*48
$GPGGA,094816.30,5104.6852023,N,01345.1067506,E,5,15,0.95,130.7744,M,43.8438,M,1.3,0548*7E
$GNGST,094816.30,1.174,0.246,0.027,145.765,0.204,0.140,1.147*4A
$GPGGA,094816.40,5104.6852037,N,01345.1067510,E,5,15,0.95,130.7836,M,43.8438,M,1.4,0548*76
$GNGST,094816.40,1.177,0.247,0.027,145.765,0.205,0.141,1.151*48
$GPGGA,094816.50,5104.6852004,N,01345.1067516,E,5,15,0.95,130.7693,M,43.8438,M,1.5,0548*71
$GNGST,094816.50,1.181,0.248,0.027,145.765,0.205,0.141,1.154*4A
$GPGGA,094816.60,5104.6852045,N,01345.1067565,E,5,15,0.95,130.7742,M,43.8438,M,0.6,0548*7C
$GNGST,094816.60,1.140,0.239,0.026,145.780,0.198,0.136,1.114*4B
$GPGGA,094816.70,5104.6852077,N,01345.1067535,E,5,15,0.95,130.7988,M,43.8438,M,0.7,0548*70
$GNGST,094816.70,1.144,0.240,0.026,145.780,0.199,0.137,1.118*4C
$GPGGA,094816.80,5104.6852057,N,01345.1067549,E,5,15,0.95,130.7858,M,43.8438,M,0.8,0548*75
$GNGST,094816.80,1.147,0.241,0.026,145.780,0.200,0.137,1.122*4B
$GPGGA,094816.90,5104.6852087,N,01345.1067529,E,5,15,0.95,130.8132,M,43.8438,M,0.9,0548*74
$GNGST,094816.90,1.151,0.241,0.026,145.780,0.200,0.138,1.125*45
$GPGGA,094817.00,5104.6852078,N,01345.1067544,E,5,15,0.95,130.8045,M,43.8438,M,1.0,0548*7E
$GNGST,094817.00,1.155,0.242,0.026,145.780,0.201,0.138,1.129*47
$GPGGA,094817.10,5104.6852052,N,01345.1067550,E,5,15,0.95,130.7901,M,43.8438,M,1.1,0548*75
$GNGST,094817.10,1.158,0.243,0.026,145.780,0.201,0.138,1.132*40
$GPGGA,094817.20,5104.6852084,N,01345.1067540,E,5,15,0.95,130.8059,M,43.8438,M,1.2,0548*74
$GNGST,094817.20,1.162,0.244,0.027,145.780,0.202,0.139,1.136*4A
$GPGGA,094817.30,5104.6852056,N,01345.1067551,E,5,15,0.95,130.7935,M,43.8438,M,1.3,0548*77
$GNGST,094817.30,1.165,0.244,0.027,145.780,0.203,0.139,1.139*42
$GPGGA,094817.40,5104.6852076,N,01345.1067548,E,5,15,0.95,130.7997,M,43.8438,M,1.4,0548*75
$GNGST,094817.40,1.169,0.245,0.027,145.780,0.203,0.140,1.143*4B
$GPGGA,094817.50,5104.6852081,N,01345.1067557,E,5,15,0.95,130.8022,M,43.8438,M,1.5,0548*7B
$GNGST,094817.50,1.173,0.246,0.027,145.780,0.204,0.140,1.146*40
$GPGGA,094817.60,5104.6852093,N,01345.1067534,E,5,15,0.95,130.8137,M,43.8438,M,1.6,0548*78
$GNGST,094817.60,1.176,0.247,0.027,145.780,0.205,0.141,1.150*40
$GPGGA,094817.70,5104.6852099,N,01345.1067543,E,5,15,0.95,130.8078,M,43.8438,M,1.7,0548*78
$GNGST,094817.70,1.180,0.247,0.027,145.780,0.205,0.141,1.153*4B
$GPGGA,094817.80,5104.6852100,N,01345.1067537,E,5,15,0.95,130.8155,M,43.8438,M,1.8,0548*74
$GNGST,094817.80,1.183,0.248,0.027,145.780,0.206,0.141,1.157*4F
$GPGGA,094817.90,5104.6852081,N,01345.1067555,E,5,15,0.95,130.8043,M,43.8438,M,1.9,0548*7E
$GNGST,094817.90,1.187,0.249,0.027,145.780,0.206,0.142,1.160*4C
$GPGGA,094818.00,5104.6852067,N,01345.1067570,E,5,15,0.95,130.7930,M,43.8438,M,2.0,0548*7F
$GNGST,094818.00,1.190,0.250,0.027,145.780,0.207,0.142,1.163*46
$GPGGA,094818.10,5104.6852099,N,01345.1067551,E,5,15,0.95,130.8173,M,43.8438,M,2.1,0548*7D
$GNGST,094818.10,1.194,0.250,0.027,145.780,0.208,0.143,1.167*49
$GPGGA,094818.20,5104.6852076,N,01345.1067552,E,5,15,0.95,130.8043,M,43.8438,M,2.2,0548*7D
$GNGST,094818.20,1.197,0.251,0.027,145.780,0.208,0.143,1.170*4E
$GPGGA,094818.30,5104.6852108,N,01345.1067534,E,5,15,0.95,130.8236,M,43.8438,M,2.3,0548*75
$GNGST,094818.30,1.201,0.252,0.027,145.780,0.209,0.143,1.174*45
$GPGGA,094818.40,5104.6852091,N,01345.1067576,E,5,15,0.95,130.8073,M,43.8438,M,2.4,0548*71
$GNGST,094818.40,1.204,0.253,0.028,145.780,0.209,0.144,1.177*4D
$GPGGA,094818.50,5104.6852078,N,01345.1067554,E,5,15,0.95,130.8088,M,43.8438,M,2.5,0548*72
$GNGST,094818.50,1.208,0.253,0.028,145.780,0.210,0.144,1.180*40
$GPGGA,094818.60,5104.6852062,N,01345.1067588,E,5,14,0.95,130.7909,M,43.8438,M,2.6,0548*76
$GNGST,094818.60,1.211,0.254,0.028,145.780,0.211,0.145,1.184*48
$GPGGA,094818.70,5104.6852066,N,01345.1067572,E,5,14,0.95,130.7999,M,43.8438,M,2.7,0548*7E
$GNGST,094818.70,1.214,0.255,0.028,145.780,0.211,0.145,1.187*4E
$GPGGA,094818.80,5104.6852068,N,01345.1067573,E,5,14,0.95,130.8066,M,43.8438,M,2.8,0548*77
$GNGST,094818.80,1.218,0.255,0.028,145.780,0.212,0.146,1.190*4B
$GPGGA,094818.90,5104.6852065,N,01345.1067577,E,5,14,0.95,130.8037,M,43.8438,M,2.9,0548*7A
$GNGST,094818.90,1.221,0.256,0.028,145.780,0.212,0.146,1.194*47
$GPGGA,094819.00,5104.6852052,N,01345.1067592,E,5,14,0.95,130.7891,M,43.8438,M,2.0,0548*7F
$GNGST,094819.00,1.190,0.250,0.027,145.780,0.207,0.142,1.163*47
$GPGGA,094819.10,5104.6852044,N,01345.1067658,E,5,14,0.95,130.7878,M,43.8438,M,2.1,0548*7A
$GNGST,094819.10,1.186,0.249,0.027,145.798,0.206,0.142,1.159*48
$GPGGA,094819.20,5104.6852043,N,01345.1067654,E,5,14,0.95,130.7803,M,43.8438,M,1.2,0548*7E
$GNGST,094819.20,1.154,0.242,0.026,145.798,0.201,0.138,1.128*42
$GPGGA,094819.30,5104.6852117,N,01345.1067740,E,5,14,0.95,130.7982,M,43.8438,M,1.3,0548*72
$GNGST,094819.30,1.150,0.241,0.026,145.813,0.200,0.137,1.124*4A
$GPGGA,094819.40,5104.6852126,N,01345.1067752,E,5,14,0.95,130.7962,M,43.8438,M,1.4,0548*7D
$GNGST,094819.40,1.153,0.242,0.026,145.813,0.201,0.138,1.127*40
$GPGGA,094819.50,5104.6852102,N,01345.1067742,E,5,14,0.95,130.7946,M,43.8438,M,1.5,0548*7C
$GNGST,094819.50,1.157,0.243,0.026,145.813,0.201,0.138,1.131*43
$GPGGA,094819.60,5104.6852108,N,01345.1067737,E,5,14,0.95,130.7968,M,43.8438,M,1.6,0548*78
$GNGST,094819.60,1.160,0.243,0.026,145.813,0.202,0.139,1.134*43
$GPGGA,094819.70,5104.6852111,N,01345.1067716,E,5,14,0.95,130.8067,M,43.8438,M,1.7,0548*7A
$GNGST,094819.70,1.164,0.244,0.027,145.813,0.203,0.139,1.138*4D
$GPGGA,094819.80,5104.6852079,N,01345.1067743,E,5,14,0.95,130.7793,M,43.8438,M,1.8,0548*76
$GNGST,094819.80,1.167,0.245,0.027,145.813,0.203,0.139,1.141*4E
$GPGGA,094819.90,5104.6852116,N,01345.1067796,E,5,15,0.95,130.7843,M,43.8438,M,0.9,0548*74
$GNGST,094819.90,1.128,0.237,0.026,145.833,0.196,0.135,1.103*47
$GPGGA,094820.00,5104.6852128,N,01345.1067780,E,5,15,0.95,130.7945,M,43.8438,M,1.0,0548*72
$GNGST,094820.00,1.132,0.237,0.026,145.833,0.197,0.135,1.106*4B
$GPGGA,094820.10,5104.6852120,N,01345.1067800,E,5,15,0.95,130.7869,M,43.8438,M,1.1,0548*72
$GNGST,094820.10,1.135,0.238,0.026,145.833,0.198,0.135,1.109*42
$GPGGA,094820.20,5104.6852128,N,01345.1067792,E,5,15,0.95,130.7937,M,43.8438,M,1.2,0548*74
$GNGST,094820.20,1.139,0.239,0.026,145.833,0.198,0.136,1.113*44
$GPGGA,094820.30,5104.6852100,N,01345.1067812,E,5,15,0.95,130.7736,M,43.8438,M,1.3,0548*76
$GNGST,094820.30,1.142,0.240,0.026,145.833,0.199,0.136,1.116*43
$GPGGA,094820.40,5104.6852110,N,01345.1067807,E,5,14,0.95,130.7786,M,43.8438,M,1.4,0548*79
$GNGST,094820.40,1.146,0.240,0.026,145.833,0.199,0.137,1.120*44
$GPGGA,094820.50,5104.6852094,N,01345.1067806,E,5,14,0.95,130.7743,M,43.8438,M,1.5,0548*7C
$GNGST,094820.50,1.149,0.241,0.026,145.833,0.200,0.137,1.123*4B
$GPGGA,094820.60,5104.6852064,N,01345.1067909,E,5,14,0.95,130.7061,M,43.8438,M,0.6,0548*7B
$GNGST,094820.60,1.114,0.234,0.026,145.834,0.194,0.133,1.089*4E
$GPGGA,094820.70,5104.6852133,N,01345.1067883,E,5,14,0.95,130.7474,M,43.8438,M,0.7,0548*7B
$GNGST,094820.70,1.114,0.234,0.025,145.847,0.194,0.133,1.088*49
$GPGGA,094820.80,5104.6852142,N,01345.1067873,E,5,14,0.95,130.7552,M,43.8438,M,0.8,0548*77
$GNGST,094820.80,1.117,0.234,0.026,145.847,0.195,0.133,1.092*4C
$GPGGA,094820.90,5104.6852128,N,01345.1067886,E,5,14,0.95,130.7472,M,43.8438,M,0.9,0548*72
$GNGST,094820.90,1.121,0.235,0.026,145.847,0.195,0.134,1.095*49
$GPGGA,094821.00,5104.6852138,N,01345.1067863,E,5,14,0.95,130.7583,M,43.8438,M,1.0,0548*77
$GNGST,094821.00,1.124,0.236,0.026,145.847,0.196,0.134,1.099*48
$GPGGA,094821.10,5104.6852140,N,01345.1067869,E,5,14,0.95,130.7574,M,43.8438,M,1.1,0548*7A
$GNGST,094821.10,1.128,0.237,0.026,145.847,0.196,0.135,1.102*46
$GPGGA,094821.20,5104.6852134,N,01345.1067880,E,5,14,0.95,130.7530,M,43.8438,M,1.2,0548*7E
$GNGST,094821.20,1.131,0.237,0.026,145.847,0.197,0.135,1.106*48
$GPGGA,094821.30,5104.6852126,N,01345.1067899,E,5,14,0.95,130.7484,M,43.8438,M,1.3,0548*7B
$GNGST,094821.30,1.135,0.238,0.026,145.847,0.198,0.135,1.109*42
$GPGGA,094821.40,5104.6852131,N,01345.1067875,E,5,14,0.95,130.7498,M,43.8438,M,1.4,0548*72
$GNGST,094821.40,1.138,0.239,0.026,145.847,0.198,0.136,1.112*40
$GPGGA,094821.50,5104.6852124,N,01345.1067889,E,5,14,0.95,130.7458,M,43.8438,M,1.5,0548*79
$GNGST,094821.50,1.142,0.240,0.026,145.847,0.199,0.136,1.116*47
$GPGGA,094821.60,5104.6852149,N,01345.1067858,E,5,14,0.95,130.7524,M,43.8438,M,0.6,0548*75
$GNGST,094821.60,1.110,0.233,0.025,145.847,0.193,0.132,1.085*41
$GPGGA,094821.70,5104.6852142,N,01345.1067940,E,5,14,0.95,130.7337,M,43.8438,M,0.7,0548*72
$GNGST,094821.70,1.106,0.232,0.025,145.868,0.193,0.132,1.081*4F
$GPGGA,094821.80,5104.6852107,N,01345.1067962,E,5,14,0.95,130.7112,M,43.8438,M,0.8,0548*76
$GNGST,094821.80,1.110,0.233,0.025,145.868,0.193,0.132,1.085*42
$GPGGA,094821.90,5104.6852128,N,01345.1067951,E,5,14,0.95,130.7249,M,43.8438,M,0.9,0548*76
$GNGST,094821.90,1.113,0.234,0.026,145.867,0.194,0.133,1.088*40
$GPGGA,094822.00,5104.6852117,N,01345.1067961,E,5,14,0.95,130.7218,M,43.8438,M,1.0,0548*7F
$GNGST,094822.00,1.117,0.234,0.026,145.867,0.195,0.133,1.092*44
$GPGGA,094822.10,5104.6852110,N,01345.1067959,E,5,14,0.95,130.7120,M,43.8438,M,1.1,0548*7B
$GNGST,094822.10,1.120,0.235,0.026,145.867,0.195,0.134,1.095*40
$GPGGA,094822.20,5104.6852113,N,01345.1067970,E,5,14,0.95,130.7180,M,43.8438,M,1.2,0548*79
$GNGST,094822.20,1.124,0.236,0.026,145.867,0.196,0.134,1.099*4B
$GPGGA,094822.30,5104.6852151,N,01345.1067952,E,5,14,0.95,130.7409,M,43.8438,M,1.3,0548*7B
$GNGST,094822.30,1.127,0.237,0.026,145.867,0.196,0.134,1.102*4B
$GPGGA,094822.40,5104.6852154,N,01345.1067947,E,5,14,0.95,130.7407,M,43.8438,M,1.4,0548*74
$GNGST,094822.40,1.131,0.237,0.026,145.867,0.197,0.135,1.105*4C
$GPGGA,094822.50,5104.6852150,N,01345.1067949,E,5,14,0.95,130.7443,M,43.8438,M,1.5,0548*7E
$GNGST,094822.50,1.134,0.238,0.026,145.867,0.198,0.135,1.109*44
$GPGGA,094822.60,5104.6852121,N,01345.1068089,E,5,14,0.95,130.6679,M,43.8438,M,0.6,0548*79
$GNGST,094822.60,1.100,0.231,0.025,145.875,0.192,0.131,1.075*4D
$GPGGA,094822.70,5104.6852145,N,01345.1068103,E,5,14,0.95,130.6827,M,43.8438,M,0.7,0548*7D
$GNGST,094822.70,1.099,0.231,0.025,145.888,0.192,0.131,1.075*4F
$GPGGA,094822.80,5104.6852144,N,01345.1068092,E,5,14,0.95,130.6856,M,43.8438,M,0.8,0548*73
$GNGST,094822.80,1.103,0.231,0.025,145.888,0.192,0.131,1.078*4F
$GPGGA,094822.90,5104.6852126,N,01345.1068090,E,5,14,0.95,130.6793,M,43.8438,M,0.9,0548*73
$GNGST,094822.90,1.106,0.232,0.025,145.888,0.193,0.132,1.081*4C
$GPGGA,094823.00,5104.6852125,N,01345.1068096,E,5,14,0.95,130.6764,M,43.8438,M,1.0,0548*7E
$GNGST,094823.00,1.110,0.233,0.025,145.888,0.193,0.132,1.085*46
$GPGGA,094823.10,5104.6852120,N,01345.1068098,E,5,14,0.95,130.6768,M,43.8438,M,1.1,0548*79
$GNGST,094823.10,1.113,0.234,0.026,145.888,0.194,0.133,1.088*4B
$GPGGA,094823.20,5104.6852136,N,01345.1068084,E,5,14,0.95,130.6879,M,43.8438,M,1.2,0548*7C
$GNGST,094823.20,1.117,0.234,0.026,145.888,0.195,0.133,1.092*46
$GPGGA,094823.30,5104.6852126,N,01345.1068083,E,5,14,0.95,130.6794,M,43.8438,M,1.3,0548*76
$GNGST,094823.30,1.120,0.235,0.026,145.888,0.195,0.134,1.095*42
$GPGGA,094823.40,5104.6852100,N,01345.1068093,E,5,14,0.95,130.6708,M,43.8438,M,1.4,0548*76
$GNGST,094823.40,1.124,0.236,0.026,145.888,0.196,0.134,1.098*4C
$GPGGA,094823.50,5104.6852137,N,01345.1068083,E,5,14,0.95,130.6901,M,43.8438,M,1.5,0548*74
$GNGST,094823.50,1.127,0.237,0.026,145.887,0.196,0.134,1.102*42
$GPGGA,094823.60,5104.6852105,N,01345.1068164,E,5,14,0.95,130.6304,M,43.8438,M,0.6,0548*73
$GNGST,094823.60,1.093,0.229,0.025,145.900,0.190,0.130,1.068*42
$GPGGA,094823.70,5104.6852168,N,01345.1068104,E,5,14,0.95,130.6709,M,43.8438,M,0.7,0548*77
$GNGST,094823.70,1.093,0.229,0.025,145.913,0.190,0.130,1.068*41
$GPGGA,094823.80,5104.6852163,N,01345.1068106,E,5,14,0.95,130.6755,M,43.8438,M,0.8,0548*77
$GNGST,094823.80,1.096,0.230,0.025,145.913,0.191,0.131,1.071*4B
$GPGGA,094823.90,5104.6852136,N,01345.1068129,E,5,14,0.95,130.6559,M,43.8438,M,0.9,0548*74
$GNGST,094823.90,1.099,0.231,0.025,145.913,0.192,0.131,1.075*43
$GPGGA,094824.00,5104.6852145,N,01345.1068123,E,5,14,0.95,130.6641,M,43.8438,M,1.0,0548*76
$GNGST,094824.00,1.103,0.231,0.025,145.912,0.192,0.131,1.078*43
$GPGGA,094824.10,5104.6852117,N,01345.1068154,E,5,14,0.95,130.6364,M,43.8438,M,1.1,0548*73
$GNGST,094824.10,1.106,0.232,0.026,145.912,0.193,0.132,1.081*43
$GPGGA,094824.20,5104.6852142,N,01345.1068136,E,5,14,0.95,130.6567,M,43.8438,M,1.2,0548*72
$GNGST,094824.20,1.110,0.233,0.026,145.912,0.193,0.132,1.085*42
$GPGGA,094824.30,5104.6852146,N,01345.1068107,E,5,14,0.95,130.6647,M,43.8438,M,1.3,0548*75
$GNGST,094824.30,1.113,0.234,0.026,145.912,0.194,0.133,1.088*4C
$GPGGA,094824.40,5104.6852148,N,01345.1068118,E,5,14,0.95,130.6605,M,43.8438,M,1.4,0548*73
$GNGST,094824.40,1.117,0.234,0.026,145.912,0.195,0.133,1.091*46
$GPGGA,094824.50,5104.6852153,N,01345.1068113,E,5,14,0.95,130.6663,M,43.8438,M,1.5,0548*72
$GNGST,094824.50,1.120,0.235,0.026,145.912,0.195,0.133,1.095*46
$GPGGA,094824.60,5104.6852133,N,01345.1068125,E,5,14,0.95,130.6473,M,43.8438,M,1.6,0548*72
$GNGST,094824.60,1.123,0.236,0.026,145.912,0.196,0.134,1.098*4C
$GPGGA,094824.70,5104.6852145,N,01345.1068176,E,5,14,0.95,130.6457,M,43.8438,M,0.7,0548*72
$GNGST,094824.70,1.089,0.229,0.025,145.922,0.190,0.130,1.065*42
$GPGGA,094824.80,5104.6852156,N,01345.1068214,E,5,14,0.95,130.6537,M,43.8438,M,0.8,0548*70
$GNGST,094824.80,1.089,0.229,0.025,145.934,0.190,0.130,1.065*4A
$GPGGA,094824.90,5104.6852175,N,01345.1068204,E,5,14,0.95,130.6653,M,43.8438,M,0.9,0548*71
$GNGST,094824.90,1.093,0.229,0.025,145.934,0.191,0.130,1.068*4C
$GPGGA,094825.00,5104.6852164,N,01345.1068204,E,5,14,0.95,130.6585,M,43.8438,M,1.0,0548*79
$GNGST,094825.00,1.096,0.230,0.025,145.934,0.191,0.131,1.071*40
$GPGGA,094825.10,5104.6852184,N,01345.1068203,E,5,14,0.95,130.6655,M,43.8438,M,1.1,0548*7E
$GNGST,094825.10,1.100,0.231,0.025,145.934,0.192,0.131,1.075*49
$GPGGA,094825.20,5104.6852184,N,01345.1068200,E,5,14,0.95,130.6686,M,43.8438,M,1.2,0548*73
$GNGST,094825.20,1.103,0.231,0.026,145.934,0.192,0.131,1.078*47
$GPGGA,094825.30,5104.6852220,N,01345.1068181,E,5,14,0.95,130.6959,M,43.8438,M,1.3,0548*79
$GNGST,094825.30,1.106,0.232,0.026,145.934,0.193,0.132,1.081*44
$GPGGA,094825.40,5104.6852206,N,01345.1068197,E,5,14,0.95,130.6782,M,43.8438,M,1.4,0548*72
$GNGST,094825.40,1.110,0.233,0.026,145.934,0.193,0.132,1.085*41
$GPGGA,094825.50,5104.6852188,N,01345.1068191,E,5,14,0.95,130.6784,M,43.8438,M,1.5,0548*77
$GNGST,094825.50,1.113,0.234,0.026,145.933,0.194,0.133,1.088*48
$GPGGA,094825.60,5104.6852190,N,01345.1068201,E,5,14,0.95,130.6673,M,43.8438,M,0.6,0548*7C
$GNGST,094825.60,1.082,0.227,0.025,145.935,0.189,0.129,1.058*4F
$GPGGA,094825.70,5104.6852905,N,01345.1068205,E,5,14,0.92,131.0212,M,43.8438,M,0.7,0548*7F
$GNGST,094825.70,0.952,0.175,0.029,134.004,0.123,0.128,0.935*4C
$GPGGA,094825.80,5104.6852885,N,01345.1068222,E,5,14,0.92,131.0004,M,43.8438,M,0.8,0548*76
$GNGST,094825.80,0.955,0.176,0.029,134.004,0.124,0.128,0.938*4D
$GPGGA,094825.90,5104.6852894,N,01345.1068219,E,5,14,0.92,131.0144,M,43.8438,M,0.9,0548*7B
$GNGST,094825.90,0.958,0.176,0.029,134.004,0.124,0.128,0.941*4F
$GPGGA,094826.00,5104.6852891,N,01345.1068213,E,5,14,0.92,131.0105,M,43.8438,M,1.0,0548*73
$GNGST,094826.00,0.961,0.177,0.029,134.004,0.125,0.129,0.944*4B
$GPGGA,094826.10,5104.6852890,N,01345.1068202,E,5,14,0.92,131.0086,M,43.8438,M,1.1,0548*78
$GNGST,094826.10,0.964,0.177,0.029,134.003,0.125,0.129,0.947*4B
$GPGGA,094826.20,5104.6852906,N,01345.1068191,E,5,14,0.92,131.0218,M,43.8438,M,1.2,0548*7A
$GNGST,094826.20,0.967,0.178,0.029,134.003,0.125,0.130,0.950*4A
$GPGGA,094826.30,5104.6852903,N,01345.1068195,E,5,14,0.92,131.0172,M,43.8438,M,1.3,0548*74
$GNGST,094826.30,0.970,0.178,0.029,134.003,0.126,0.130,0.953*4D
$GPGGA,094826.40,5104.6852905,N,01345.1068209,E,5,14,0.92,131.0201,M,43.8438,M,1.4,0548*73
$GNGST,094826.40,0.973,0.179,0.030,134.003,0.126,0.130,0.956*45
$GPGGA,094826.50,5104.6852920,N,01345.1068212,E,5,14,0.92,131.0274,M,43.8438,M,1.5,0548*7C
$GNGST,094826.50,0.976,0.180,0.030,134.003,0.127,0.131,0.958*49
$GPGGA,094826.60,5104.6852903,N,01345.1068270,E,5,15,0.92,130.9985,M,43.8438,M,0.6,0548*74
$GNGST,094826.60,0.946,0.174,0.029,134.037,0.123,0.127,0.929*48
$GPGGA,094826.70,5104.6852935,N,01345.1068235,E,5,14,0.92,131.0287,M,43.8438,M,0.7,0548*70
$GNGST,094826.70,0.946,0.174,0.029,134.038,0.123,0.127,0.929*46
$GPGGA,094826.80,5104.6852926,N,01345.1068249,E,5,14,0.92,131.0206,M,43.8438,M,0.8,0548*70
$GNGST,094826.80,0.949,0.175,0.029,134.037,0.123,0.127,0.932*42
$GPGGA,094826.90,5104.6852930,N,01345.1068250,E,5,14,0.92,131.0227,M,43.8438,M,0.9,0548*7C
$GNGST,094826.90,0.952,0.175,0.029,134.037,0.124,0.128,0.935*46
$GPGGA,094827.00,5104.6852953,N,01345.1068237,E,5,14,0.92,131.0317,M,43.8438,M,1.0,0548*7A
$GNGST,094827.00,0.955,0.176,0.029,134.037,0.124,0.128,0.938*47
$GPGGA,094827.10,5104.6852951,N,01345.1068247,E,5,14,0.92,131.0278,M,43.8438,M,1.1,0548*77
$GNGST,094827.10,0.958,0.176,0.029,134.036,0.124,0.128,0.941*44
$GPGGA,094827.20,5104.6852950,N,01345.1068231,E,5,14,0.92,131.0337,M,43.8438,M,1.2,0548*7D
$GNGST,094827.20,0.961,0.177,0.029,134.036,0.125,0.129,0.944*49
$GPGGA,094827.30,5104.6852944,N,01345.1068237,E,5,14,0.92,131.0322,M,43.8438,M,1.3,0548*7A
$GNGST,094827.30,0.964,0.177,0.029,134.036,0.125,0.129,0.947*4E
$GPGGA,094827.40,5104.6852935,N,01345.1068244,E,5,14,0.92,131.0249,M,43.8438,M,1.4,0548*74
$GNGST,094827.40,0.967,0.178,0.030,134.035,0.125,0.130,0.950*40
$GPGGA,094827.50,5104.6852958,N,01345.1068224,E,5,14,0.92,131.0445,M,43.8438,M,1.5,0548*73
$GNGST,094827.50,0.970,0.178,0.030,134.035,0.126,0.130,0.953*47
$GPGGA,094827.60,5104.6855204,N,01345.1064256,E,5,14,0.93,134.5618,M,43.8438,M,0.6,0548*75
$GNGST,094827.60,0.736,0.122,0.027,127.719,0.078,0.098,0.725*4C
$GPGGA,094827.70,5104.6853346,N,01345.1068167,E,5,14,0.93,131.0875,M,43.8438,M,0.7,0548*7C
$GNGST,094827.70,0.870,0.134,0.024,118.576,0.067,0.118,0.860*4A
$GPGGA,094827.80,5104.6853351,N,01345.1068144,E,5,14,0.93,131.1018,M,43.8438,M,0.8,0548*79
$GNGST,094827.80,0.873,0.134,0.024,118.576,0.068,0.118,0.862*4B
$GPGGA,094827.90,5104.6853363,N,01345.1068150,E,5,14,0.93,131.1021,M,43.8438,M,0.9,0548*77
$GNGST,094827.90,0.876,0.134,0.024,118.576,0.068,0.119,0.865*49
$GPGGA,094828.00,5104.6853364,N,01345.1068163,E,5,14,0.93,131.0963,M,43.8438,M,1.0,0548*70
$GNGST,094828.00,0.879,0.135,0.024,118.576,0.068,0.119,0.868*4C
$GPGGA,094828.10,5104.6853359,N,01345.1068145,E,5,14,0.93,131.1077,M,43.8438,M,1.1,0548*77
$GNGST,094828.10,0.881,0.135,0.025,118.575,0.068,0.119,0.871*40
$GPGGA,094828.20,5104.6853356,N,01345.1068147,E,5,14,0.93,131.1015,M,43.8438,M,1.2,0548*7E
$GNGST,094828.20,0.884,0.136,0.025,118.575,0.068,0.120,0.873*4D
$GPGGA,094828.30,5104.6853345,N,01345.1068174,E,5,14,0.93,131.0872,M,43.8438,M,1.3,0548*74
$GNGST,094828.30,0.887,0.136,0.025,118.575,0.069,0.120,0.876*4B
$GPGGA,094828.40,5104.6853352,N,01345.1068177,E,5,14,0.93,131.0893,M,43.8438,M,1.4,0548*7E
$GNGST,094828.40,0.890,0.136,0.025,118.575,0.069,0.120,0.879*45
$GPGGA,094828.50,5104.6853366,N,01345.1068165,E,5,14,0.93,131.0977,M,43.8438,M,1.5,0548*71
$GNGST,094828.50,0.892,0.137,0.025,118.575,0.069,0.121,0.881*41
$GPGGA,094828.60,5104.6853345,N,01345.1068232,E,5,15,0.93,131.0580,M,43.8438,M,0.6,0548*75
$GNGST,094828.60,0.866,0.133,0.024,118.596,0.067,0.117,0.855*43
$GPGGA,094828.70,5104.6853398,N,01345.1068176,E,5,15,0.93,131.1110,M,43.8438,M,0.7,0548*7A
$GNGST,094828.70,0.865,0.133,0.024,118.588,0.067,0.117,0.855*4E
$GPGGA,094828.80,5104.6853386,N,01345.1068173,E,5,15,0.93,131.1041,M,43.8438,M,0.8,0548*75
$GNGST,094828.80,0.868,0.133,0.024,118.588,0.067,0.117,0.857*4E
$GPGGA,094828.90,5104.6853371,N,01345.1068182,E,5,14,0.93,131.0942,M,43.8438,M,0.9,0548*79
$GNGST,094828.90,0.871,0.134,0.024,118.588,0.067,0.118,0.860*4B
$GPGGA,094829.00,5104.6853394,N,01345.1068196,E,5,14,0.93,131.1082,M,43.8438,M,1.0,0548*73
$GNGST,094829.00,0.874,0.134,0.025,118.588,0.068,0.118,0.863*4B
$GPGGA,094829.10,5104.6853402,N,01345.1068186,E,5,14,0.93,131.1216,M,43.8438,M,1.1,0548*75
$GNGST,094829.10,0.876,0.134,0.025,118.588,0.068,0.119,0.866*4C
$GPGGA,094829.20,5104.6853402,N,01345.1068186,E,5,14,0.93,131.1213,M,43.8438,M,1.2,0548*70
$GNGST,094829.20,0.879,0.135,0.025,118.588,0.068,0.119,0.868*4F
$GPGGA,094829.30,5104.6853393,N,01345.1068218,E,5,14,0.93,131.1009,M,43.8438,M,1.3,0548*72
$GNGST,094829.30,0.882,0.135,0.025,118.588,0.068,0.119,0.871*42
$GPGGA,094829.40,5104.6853400,N,01345.1068195,E,5,14,0.93,131.1158,M,43.8438,M,1.4,0548*7C
$GNGST,094829.40,0.884,0.136,0.025,118.587,0.068,0.120,0.874*40
$GPGGA,094829.50,5104.6853403,N,01345.1068183,E,5,14,0.93,131.1129,M,43.8438,M,1.5,0548*7E
$GNGST,094829.50,0.887,0.136,0.025,118.587,0.069,0.120,0.876*41
$GPGGA,094829.60,5104.6853408,N,01345.1068250,E,5,15,0.93,131.0975,M,43.8438,M,0.6,0548*78
$GNGST,094829.60,0.858,0.131,0.024,118.590,0.066,0.116,0.847*48
$GPGGA,094829.70,5104.6853414,N,01345.1068254,E,5,14,0.93,131.0982,M,43.8438,M,0.7,0548*78
$GNGST,094829.70,0.860,0.132,0.024,118.590,0.067,0.116,0.850*46
$GPGGA,094829.80,5104.6853416,N,01345.1068245,E,5,14,0.93,131.1089,M,43.8438,M,0.8,0548*79
$GNGST,094829.80,0.863,0.132,0.024,118.590,0.067,0.117,0.853*48
$GPGGA,094829.90,5104.6853406,N,01345.1068252,E,5,14,0.93,131.1061,M,43.8438,M,0.9,0548*78
$GNGST,094829.90,0.866,0.133,0.024,118.590,0.067,0.117,0.855*4B
$GPGGA,094830.00,5104.6853421,N,01345.1068241,E,5,14,0.93,131.1117,M,43.8438,M,1.0,0548*76
$GNGST,094830.00,0.869,0.133,0.024,118.590,0.067,0.118,0.858*47
$GPGGA,094830.10,5104.6853419,N,01345.1068243,E,5,14,0.93,131.1107,M,43.8438,M,1.1,0548*7E
$GNGST,094830.10,0.871,0.134,0.024,118.590,0.067,0.118,0.861*42
$GPGGA,094830.20,5104.6853424,N,01345.1068248,E,5,14,0.93,131.1124,M,43.8438,M,1.2,0548*7A
$GNGST,094830.20,0.874,0.134,0.025,118.590,0.068,0.118,0.863*48
$GPGGA,094830.30,5104.6853414,N,01345.1068268,E,5,14,0.93,131.0999,M,43.8438,M,1.3,0548*74
$GNGST,094830.30,0.877,0.134,0.025,118.590,0.068,0.119,0.866*4E
$GPGGA,094830.40,5104.6853411,N,01345.1068270,E,5,14,0.93,131.1009,M,43.8438,M,1.4,0548*79
$GNGST,094830.40,0.879,0.135,0.025,118.590,0.068,0.119,0.869*49
$GPGGA,094830.50,5104.6853427,N,01345.1068256,E,5,14,0.93,131.1257,M,43.8438,M,1.5,0548*71
$GNGST,094830.50,0.882,0.135,0.025,118.590,0.068,0.119,0.871*45
$GPGGA,094830.60,5104.6853426,N,01345.1068269,E,5,15,0.93,131.1358,M,43.8438,M,0.6,0548*72
$GNGST,094830.60,0.853,0.131,0.024,118.614,0.066,0.115,0.842*42
$GPGGA,094830.70,5104.6853429,N,01345.1068270,E,5,15,0.93,131.1308,M,43.8438,M,0.7,0548*70
$GNGST,094830.70,0.856,0.131,0.024,118.614,0.066,0.116,0.845*42
$GPGGA,094830.80,5104.6853434,N,01345.1068252,E,5,15,0.93,131.1532,M,43.8438,M,0.8,0548*73
$GNGST,094830.80,0.858,0.132,0.024,118.614,0.067,0.116,0.848*4C
$GPGGA,094830.90,5104.6853442,N,01345.1068272,E,5,15,0.93,131.1505,M,43.8438,M,0.9,0548*74
$GNGST,094830.90,0.861,0.132,0.024,118.614,0.067,0.116,0.850*4E
$GPGGA,094831.00,5104.6853445,N,01345.1068254,E,5,15,0.93,131.1498,M,43.8438,M,1.0,0548*72
$GNGST,094831.00,0.864,0.132,0.024,118.614,0.067,0.117,0.853*41
$GPGGA,094831.10,5104.6853457,N,01345.1068232,E,5,15,0.93,131.1621,M,43.8438,M,1.1,0548*71
$GNGST,094831.10,0.866,0.133,0.025,118.613,0.067,0.117,0.856*40
$GPGGA,094831.20,5104.6853446,N,01345.1068251,E,5,14,0.93,131.1582,M,43.8438,M,1.2,0548*7F
$GNGST,094831.20,0.869,0.133,0.025,118.613,0.067,0.118,0.858*4D
$GPGGA,094831.30,5104.6853453,N,01345.1068233,E,5,14,0.93,131.1687,M,43.8438,M,1.3,0548*79
$GNGST,094831.30,0.872,0.134,0.025,118.613,0.068,0.118,0.861*44
$GPGGA,094831.40,5104.6853396,N,01345.1068252,E,5,14,0.93,131.1340,M,43.8438,M,1.4,0548*7E
$GNGST,094831.40,0.874,0.134,0.025,118.613,0.068,0.118,0.864*40
$GPGGA,094831.50,5104.6853412,N,01345.1068205,E,5,14,0.93,131.1704,M,43.8438,M,1.5,0548*73
$GNGST,094831.50,0.877,0.134,0.025,118.613,0.068,0.119,0.866*41
$GPGGA,094831.60,5104.6853418,N,01345.1068215,E,5,15,0.93,131.1659,M,43.8438,M,0.6,0548*71
$GNGST,094831.60,0.848,0.130,0.025,118.645,0.066,0.115,0.838*40
$GPGGA,094831.70,5104.6853423,N,01345.1068238,E,5,15,0.93,131.1422,M,43.8438,M,0.7,0548*78
$GNGST,094831.70,0.851,0.130,0.025,118.645,0.066,0.115,0.840*46
$GPGGA,094831.80,5104.6853411,N,01345.1068290,E,5,15,0.93,131.1255,M,43.8438,M,0.8,0548*7D
$GNGST,094831.80,0.853,0.131,0.025,118.644,0.066,0.115,0.843*48
$GPGGA,094831.90,5104.6853400,N,01345.1068300,E,5,15,0.93,131.1083,M,43.8438,M,0.9,0548*7C
$GNGST,094831.90,0.856,0.131,0.025,118.644,0.067,0.116,0.846*4B
$GPGGA,094832.00,5104.6853402,N,01345.1068322,E,5,15,0.93,131.1020,M,43.8438,M,1.0,0548*75
$GNGST,094832.00,0.859,0.132,0.025,118.644,0.067,0.116,0.848*43
$GPGGA,094832.10,5104.6853401,N,01345.1068307,E,5,15,0.93,131.1095,M,43.8438,M,1.1,0548*7F
$GNGST,094832.10,0.862,0.132,0.025,118.643,0.067,0.116,0.851*45
$GPGGA,094832.20,5104.6853407,N,01345.1068308,E,5,15,0.93,131.1170,M,43.8438,M,1.2,0548*7C
$GNGST,094832.20,0.864,0.132,0.025,118.643,0.067,0.117,0.854*44
$GPGGA,094832.30,5104.6853396,N,01345.1068319,E,5,15,0.93,131.1067,M,43.8438,M,1.3,0548*74
$GNGST,094832.30,0.867,0.133,0.025,118.643,0.067,0.117,0.856*45
$GPGGA,094832.40,5104.6853390,N,01345.1068297,E,5,15,0.93,131.1044,M,43.8438,M,1.4,0548*74
$GNGST,094832.40,0.870,0.133,0.025,118.642,0.068,0.118,0.859*4A
$GPGGA,094832.50,5104.6853407,N,01345.1068261,E,5,15,0.93,131.1179,M,43.8438,M,1.5,0548*7B
$GNGST,094832.50,0.872,0.134,0.025,118.642,0.068,0.118,0.862*46
$GPGGA,094832.60,5104.6853408,N,01345.1068275,E,5,15,0.93,131.1169,M,43.8438,M,0.6,0548*71
$GNGST,094832.60,0.848,0.130,0.025,118.645,0.066,0.115,0.838*43
$GPGGA,094832.70,5104.6853957,N,01345.1068152,E,5,14,0.97,131.5591,M,43.8438,M,0.7,0548*72
$GNGST,094832.70,0.865,0.166,0.015,78.795,0.036,0.163,0.849*74
$GPGGA,094832.80,5104.6853958,N,01345.1068142,E,5,14,0.97,131.5633,M,43.8438,M,0.8,0548*77
$GNGST,094832.80,0.868,0.167,0.015,78.795,0.036,0.164,0.852*7A
$GPGGA,094832.90,5104.6853965,N,01345.1068117,E,5,14,0.97,131.5753,M,43.8438,M,0.9,0548*7E
$GNGST,094832.90,0.871,0.167,0.015,78.795,0.036,0.164,0.854*75
$GPGGA,094833.00,5104.6853970,N,01345.1068156,E,5,14,0.97,131.5620,M,43.8438,M,1.0,0548*7A
$GNGST,094833.00,0.873,0.168,0.015,78.795,0.036,0.165,0.857*72
$GPGGA,094833.10,5104.6853967,N,01345.1068169,E,5,14,0.97,131.5593,M,43.8438,M,1.1,0548*7B
$GNGST,094833.10,0.876,0.168,0.015,78.795,0.036,0.165,0.860*72
$GPGGA,094833.20,5104.6853961,N,01345.1068198,E,5,14,0.97,131.5507,M,43.8438,M,1.2,0548*7E
$GNGST,094833.20,0.879,0.169,0.015,78.795,0.036,0.166,0.862*7E
$GPGGA,094833.30,5104.6853961,N,01345.1068188,E,5,14,0.97,131.5518,M,43.8438,M,1.3,0548*71
$GNGST,094833.30,0.881,0.169,0.015,78.795,0.036,0.166,0.865*7F
$GPGGA,094833.40,5104.6853959,N,01345.1068200,E,5,14,0.97,131.5487,M,43.8438,M,1.4,0548*7E
$GNGST,094833.40,0.884,0.170,0.016,78.795,0.036,0.167,0.868*7A
$GPGGA,094833.50,5104.6853959,N,01345.1068219,E,5,14,0.97,131.5377,M,43.8438,M,1.5,0548*7E
$GNGST,094833.50,0.887,0.170,0.016,78.795,0.036,0.167,0.870*71
$GPGGA,094833.60,5104.6853960,N,01345.1068213,E,5,13,0.97,131.5420,M,43.8438,M,1.6,0548*7C
$GNGST,094833.60,0.890,0.171,0.016,78.795,0.037,0.168,0.873*78
$GPGGA,094833.70,5104.6853962,N,01345.1068215,E,5,13,0.97,131.5272,M,43.8438,M,1.7,0548*79
$GNGST,094833.70,0.892,0.171,0.016,78.795,0.037,0.168,0.875*7D
$GPGGA,094833.80,5104.6853959,N,01345.1068196,E,5,13,0.97,131.5312,M,43.8438,M,1.8,0548*7E
$GNGST,094833.80,0.895,0.172,0.016,78.795,0.037,0.169,0.878*7A
$GPGGA,094833.90,5104.6853977,N,01345.1068144,E,5,13,0.97,131.5654,M,43.8438,M,1.9,0548*7A
$GNGST,094833.90,0.898,0.172,0.016,78.795,0.037,0.169,0.881*70
$GPGGA,094834.00,5104.6853974,N,01345.1068158,E,5,13,0.97,131.5526,M,43.8438,M,1.0,0548*75
$GNGST,094834.00,0.873,0.168,0.015,78.795,0.036,0.165,0.857*75
$GPGGA,094834.10,5104.6853418,N,01345.1068379,E,5,14,0.93,131.1417,M,43.8438,M,1.1,0548*77
$GNGST,094834.10,0.852,0.130,0.024,118.602,0.066,0.115,0.842*46
$GPGGA,094834.20,5104.6853430,N,01345.1068380,E,5,14,0.93,131.1555,M,43.8438,M,1.2,0548*7C
$GNGST,094834.20,0.855,0.131,0.024,118.602,0.066,0.115,0.844*45
$GPGGA,094834.30,5104.6853430,N,01345.1068396,E,5,14,0.93,131.1451,M,43.8438,M,1.3,0548*7E
$GNGST,094834.30,0.857,0.131,0.024,118.602,0.066,0.116,0.847*46
$GPGGA,094834.40,5104.6853436,N,01345.1068385,E,5,14,0.93,131.1489,M,43.8438,M,1.4,0548*7F
$GNGST,094834.40,0.860,0.132,0.024,118.602,0.066,0.116,0.850*40
$GPGGA,094834.50,5104.6853424,N,01345.1068394,E,5,14,0.93,131.1356,M,43.8438,M,1.5,0548*79
$GNGST,094834.50,0.863,0.132,0.024,118.602,0.067,0.116,0.852*41
$GPGGA,094834.60,5104.6853407,N,01345.1068411,E,5,14,0.93,131.1252,M,43.8438,M,1.6,0548*77
$GNGST,094834.60,0.865,0.132,0.024,118.602,0.067,0.117,0.855*42
$GPGGA,094834.70,5104.6853395,N,01345.1068512,E,5,15,0.93,131.0937,M,43.8438,M,0.7,0548*70
$GNGST,094834.70,0.840,0.129,0.023,118.615,0.065,0.113,0.830*4A
$GPGGA,094834.80,5104.6853413,N,01345.1068472,E,5,15,0.93,131.1147,M,43.8438,M,0.8,0548*70
$GNGST,094834.80,0.840,0.128,0.023,118.609,0.065,0.113,0.829*41
$GPGGA,094834.90,5104.6853413,N,01345.1068503,E,5,15,0.93,131.1053,M,43.8438,M,0.9,0548*73
$GNGST,094834.90,0.842,0.129,0.023,118.609,0.065,0.114,0.832*4E
$GPGGA,094835.00,5104.6853436,N,01345.1068459,E,5,15,0.93,131.1337,M,43.8438,M,1.0,0548*7B
$GNGST,094835.00,0.845,0.129,0.023,118.609,0.065,0.114,0.835*46
$GPGGA,094835.10,5104.6853429,N,01345.1068481,E,5,15,0.93,131.1239,M,43.8438,M,1.1,0548*7F
$GNGST,094835.10,0.848,0.130,0.023,118.609,0.065,0.114,0.837*40
$GPGGA,094835.20,5104.6853453,N,01345.1068436,E,5,14,0.93,131.1557,M,43.8438,M,1.2,0548*70
$GNGST,094835.20,0.850,0.130,0.023,118.609,0.066,0.115,0.840*48
$GPGGA,094835.30,5104.6853440,N,01345.1068465,E,5,14,0.93,131.1416,M,43.8438,M,1.3,0548*70
$GNGST,094835.30,0.853,0.130,0.023,118.609,0.066,0.115,0.843*49
$GPGGA,094835.40,5104.6853437,N,01345.1068464,E,5,14,0.93,131.1379,M,43.8438,M,1.4,0548*7F
$GNGST,094835.40,0.855,0.131,0.024,118.609,0.066,0.115,0.845*48
$GPGGA,094835.50,5104.6853419,N,01345.1068474,E,5,14,0.93,131.1077,M,43.8438,M,1.5,0548*7F
$GNGST,094835.50,0.858,0.131,0.024,118.609,0.066,0.116,0.848*4A
$GPGGA,094835.60,5104.6853425,N,01345.1068507,E,5,15,0.93,131.1029,M,43.8438,M,0.6,0548*7E
$GNGST,094835.60,0.833,0.127,0.023,118.625,0.064,0.112,0.823*41
$GPGGA,094835.70,5104.6853451,N,01345.1068466,E,5,15,0.93,131.1295,M,43.8438,M,0.7,0548*7E
$GNGST,094835.70,0.833,0.127,0.023,118.620,0.064,0.112,0.823*45
$GPGGA,094835.80,5104.6853434,N,01345.1068519,E,5,15,0.93,131.1146,M,43.8438,M,0.8,0548*79
$GNGST,094835.80,0.835,0.128,0.023,118.620,0.064,0.113,0.825*44
$GPGGA,094835.90,5104.6853433,N,01345.1068504,E,5,15,0.93,131.1209,M,43.8438,M,0.9,0548*7A
$GNGST,094835.90,0.838,0.128,0.023,118.620,0.065,0.113,0.828*44
$GPGGA,094836.00,5104.6853418,N,01345.1068514,E,5,15,0.93,131.1055,M,43.8438,M,1.0,0548*7B
$GNGST,094836.00,0.841,0.129,0.023,118.620,0.065,0.113,0.830*48
$GPGGA,094836.10,5104.6853425,N,01345.1068516,E,5,15,0.93,131.1119,M,43.8438,M,1.1,0548*7E
$GNGST,094836.10,0.843,0.129,0.023,118.620,0.065,0.114,0.833*4F
$GPGGA,094836.20,5104.6853430,N,01345.1068514,E,5,15,0.93,131.1174,M,43.8438,M,1.2,0548*73
$GNGST,094836.20,0.846,0.129,0.023,118.620,0.065,0.114,0.836*4C
$GPGGA,094836.30,5104.6853428,N,01345.1068515,E,5,15,0.93,131.1092,M,43.8438,M,1.3,0548*72
$GNGST,094836.30,0.848,0.130,0.023,118.619,0.065,0.114,0.838*4F
$GPGGA,094836.40,5104.6853444,N,01345.1068498,E,5,15,0.93,131.1190,M,43.8438,M,1.4,0548*7F
$GNGST,094836.40,0.851,0.130,0.024,118.619,0.066,0.115,0.841*4B
$GPGGA,094836.50,5104.6853470,N,01345.1068476,E,5,15,0.93,131.1493,M,43.8438,M,1.5,0548*7E
$GNGST,094836.50,0.854,0.131,0.024,118.619,0.066,0.115,0.843*4C
$GPGGA,094836.60,5104.6853516,N,01345.1068495,E,5,15,0.93,131.1707,M,43.8438,M,0.6,0548*7D
$GNGST,094836.60,0.826,0.126,0.023,118.627,0.064,0.111,0.816*40
$GPGGA,094836.70,5104.6853581,N,01345.1068432,E,5,15,0.93,131.2388,M,43.8438,M,0.7,0548*7E
$GNGST,094836.70,0.828,0.127,0.023,118.627,0.064,0.112,0.818*43
$GPGGA,094836.80,5104.6853512,N,01345.1068442,E,5,15,0.93,131.1994,M,43.8438,M,0.8,0548*77
$GNGST,094836.80,0.831,0.127,0.023,118.627,0.064,0.112,0.821*4E
$GPGGA,094836.90,5104.6853513,N,01345.1068485,E,5,15,0.93,131.1661,M,43.8438,M,0.9,0548*78
$GNGST,094836.90,0.834,0.127,0.023,118.627,0.064,0.112,0.823*48
$GPGGA,094837.00,5104.6853519,N,01345.1068459,E,5,15,0.93,131.1714,M,43.8438,M,1.0,0548*70
$GNGST,094837.00,0.836,0.128,0.023,118.627,0.064,0.113,0.826*49
$GPGGA,094837.10,5104.6853509,N,01345.1068456,E,5,15,0.93,131.1547,M,43.8438,M,1.1,0548*7A
$GNGST,094837.10,0.839,0.128,0.023,118.627,0.065,0.113,0.829*49
$GPGGA,094837.20,5104.6853517,N,01345.1068446,E,5,15,0.93,131.1727,M,43.8438,M,1.2,0548*70
$GNGST,094837.20,0.841,0.129,0.023,118.627,0.065,0.113,0.831*4D
$GPGGA,094837.30,5104.6853528,N,01345.1068436,E,5,15,0.93,131.1804,M,43.8438,M,1.3,0548*75
$GNGST,094837.30,0.844,0.129,0.023,118.627,0.065,0.114,0.834*4B
$GPGGA,094837.40,5104.6853536,N,01345.1068420,E,5,15,0.93,131.1917,M,43.8438,M,1.4,0548*7E
$GNGST,094837.40,0.847,0.129,0.023,118.627,0.065,0.114,0.836*4D
$GPGGA,094837.50,5104.6853549,N,01345.1068410,E,5,14,0.93,131.1964,M,43.8438,M,1.5,0548*70
$GNGST,094837.50,0.849,0.130,0.023,118.627,0.065,0.115,0.839*44
$GPGGA,094837.60,5104.6853551,N,01345.1068443,E,5,15,0.93,131.2098,M,43.8438,M,0.6,0548*76
$GNGST,094837.60,0.824,0.126,0.023,118.659,0.064,0.111,0.814*48
$GPGGA,094837.70,5104.6853522,N,01345.1068471,E,5,15,0.93,131.1876,M,43.8438,M,0.7,0548*78
$GNGST,094837.70,0.824,0.126,0.023,118.654,0.064,0.111,0.814*44
$GPGGA,094837.80,5104.6853514,N,01345.1068472,E,5,15,0.93,131.1745,M,43.8438,M,0.8,0548*71
$GNGST,094837.80,0.827,0.126,0.023,118.653,0.064,0.111,0.817*4C
$GPGGA,094837.90,5104.6853525,N,01345.1068462,E,5,15,0.93,131.1882,M,43.8438,M,0.9,0548*76
$GNGST,094837.90,0.829,0.127,0.023,118.653,0.064,0.112,0.819*4F
$GPGGA,094838.00,5104.6853538,N,01345.1068435,E,5,15,0.93,131.2010,M,43.8438,M,1.0,0548*76
$GNGST,094838.00,0.832,0.127,0.023,118.653,0.064,0.112,0.822*4B
$GPGGA,094838.10,5104.6853539,N,01345.1068450,E,5,15,0.93,131.1968,M,43.8438,M,1.1,0548*71
$GNGST,094838.10,0.834,0.128,0.023,118.653,0.064,0.112,0.824*45
$GPGGA,094838.20,5104.6853570,N,01345.1068416,E,5,15,0.93,131.2278,M,43.8438,M,1.2,0548*77
$GNGST,094838.20,0.837,0.128,0.023,118.653,0.065,0.113,0.827*46
$GPGGA,094838.30,5104.6853570,N,01345.1068403,E,5,15,0.93,131.2371,M,43.8438,M,1.3,0548*7B
$GNGST,094838.30,0.840,0.128,0.023,118.653,0.065,0.113,0.829*49
$GPGGA,094838.40,5104.6853570,N,01345.1068413,E,5,15,0.93,131.2322,M,43.8438,M,1.4,0548*7C
$GNGST,094838.40,0.842,0.129,0.023,118.652,0.065,0.114,0.832*41
$GPGGA,094838.50,5104.6853559,N,01345.1068425,E,5,15,0.93,131.2150,M,43.8438,M,1.5,0548*75
$GNGST,094838.50,0.845,0.129,0.023,118.652,0.065,0.114,0.835*40
$GPGGA,094838.60,5104.6853607,N,01345.1068403,E,5,15,0.93,131.2616,M,43.8438,M,0.6,0548*7D
$GNGST,094838.60,0.817,0.125,0.023,118.646,0.063,0.110,0.807*4E
$GPGGA,094838.70,5104.6853592,N,01345.1068433,E,5,15,0.93,131.2450,M,43.8438,M,0.7,0548*71
$GNGST,094838.70,0.820,0.125,0.023,118.646,0.063,0.110,0.810*4D
$GPGGA,094838.80,5104.6853586,N,01345.1068434,E,5,15,0.93,131.2417,M,43.8438,M,0.8,0548*70
$GNGST,094838.80,0.822,0.126,0.023,118.646,0.063,0.111,0.812*40
$GPGGA,094838.90,5104.6853579,N,01345.1068447,E,5,15,0.93,131.2352,M,43.8438,M,0.9,0548*72
$GNGST,094838.90,0.825,0.126,0.023,118.646,0.064,0.111,0.815*46
$GPGGA,094839.00,5104.6853585,N,01345.1068441,E,5,15,0.93,131.2295,M,43.8438,M,1.0,0548*7D
$GNGST,094839.00,0.828,0.126,0.023,118.646,0.064,0.112,0.818*4D
$GPGGA,094839.10,5104.6853603,N,01345.1068423,E,5,14,0.93,131.2549,M,43.8438,M,1.1,0548*73
$GNGST,094839.10,0.830,0.127,0.023,118.646,0.064,0.112,0.820*4F
$GPGGA,094839.20,5104.6853592,N,01345.1068466,E,5,14,0.93,131.2325,M,43.8438,M,1.2,0548*75
$GNGST,094839.20,0.833,0.127,0.023,118.646,0.064,0.112,0.823*4C
$GPGGA,094839.30,5104.6853597,N,01345.1068505,E,5,14,0.93,131.2262,M,43.8438,M,1.3,0548*76
$GNGST,094839.30,0.835,0.128,0.023,118.646,0.064,0.113,0.825*43
$GPGGA,094839.40,5104.6853614,N,01345.1068504,E,5,14,0.93,131.2498,M,43.8438,M,1.4,0548*7C
$GNGST,094839.40,0.838,0.128,0.023,118.646,0.065,0.113,0.828*45
$GPGGA,094839.50,5104.6853613,N,01345.1068507,E,5,14,0.93,131.2519,M,43.8438,M,1.5,0548*70
$GNGST,094839.50,0.840,0.128,0.023,118.646,0.065,0.113,0.830*42
$GPGGA,094839.60,5104.6853624,N,01345.1068549,E,5,15,0.93,131.2817,M,43.8438,M,0.6,0548*7D
$GNGST,094839.60,0.813,0.124,0.022,118.641,0.063,0.110,0.803*48
$GPGGA,094839.70,5104.6853600,N,01345.1068548,E,5,15,0.93,131.2600,M,43.8438,M,0.7,0548*72
$GNGST,094839.70,0.816,0.125,0.022,118.641,0.063,0.110,0.806*48
$GPGGA,094839.80,5104.6853596,N,01345.1068570,E,5,15,0.93,131.2425,M,43.8438,M,0.8,0548*70
$GNGST,094839.80,0.818,0.125,0.022,118.641,0.063,0.110,0.808*47
$GPGGA,094839.90,5104.6853600,N,01345.1068574,E,5,15,0.93,131.2442,M,43.8438,M,0.9,0548*79
$GNGST,094839.90,0.821,0.125,0.023,118.641,0.063,0.111,0.811*44
$GPGGA,094840.00,5104.6853625,N,01345.1068550,E,5,15,0.93,131.2668,M,43.8438,M,1.0,0548*7D
$GNGST,094840.00,0.823,0.126,0.023,118.641,0.063,0.111,0.813*40
$GPGGA,094840.10,5104.6853622,N,01345.1068518,E,5,15,0.93,131.2784,M,43.8438,M,1.1,0548*75
$GNGST,094840.10,0.826,0.126,0.023,118.641,0.064,0.111,0.816*46
$GPGGA,094840.20,5104.6853647,N,01345.1068516,E,5,15,0.93,131.2909,M,43.8438,M,1.2,0548*73
$GNGST,094840.20,0.829,0.127,0.023,118.641,0.064,0.112,0.819*47
$GPGGA,094840.30,5104.6853631,N,01345.1068521,E,5,15,0.93,131.2802,M,43.8438,M,1.3,0548*7C
$GNGST,094840.30,0.831,0.127,0.023,118.641,0.064,0.112,0.821*44
$GPGGA,094840.40,5104.6853629,N,01345.1068523,E,5,15,0.93,131.2752,M,43.8438,M,1.4,0548*7D
$GNGST,094840.40,0.834,0.127,0.023,118.641,0.064,0.112,0.824*43
$GPGGA,094840.50,5104.6853623,N,01345.1068507,E,5,15,0.93,131.2767,M,43.8438,M,1.5,0548*77
$GNGST,094840.50,0.836,0.128,0.023,118.641,0.064,0.113,0.826*4C
$GPGGA,094840.60,5104.6853616,N,01345.1068605,E,5,15,0.93,131.2684,M,43.8438,M,0.6,0548*7D
$GNGST,094840.60,0.809,0.124,0.022,118.644,0.062,0.109,0.799*4D
$GPGGA,094840.70,5104.6853629,N,01345.1068604,E,5,15,0.93,131.2872,M,43.8438,M,0.7,0548*77
$GNGST,094840.70,0.812,0.124,0.022,118.644,0.063,0.109,0.802*4A
$GPGGA,094840.80,5104.6853633,N,01345.1068581,E,5,15,0.93,131.3013,M,43.8438,M,0.8,0548*7C
$GNGST,094840.80,0.814,0.124,0.022,118.645,0.063,0.110,0.804*4C
$GPGGA,094840.90,5104.6853646,N,01345.1068589,E,5,15,0.93,131.3084,M,43.8438,M,0.9,0548*78
$GNGST,094840.90,0.817,0.125,0.022,118.645,0.063,0.110,0.807*4C
$GPGGA,094841.00,5104.6853654,N,01345.1068588,E,5,15,0.93,131.3138,M,43.8438,M,1.0,0548*7C
$GNGST,094841.00,0.819,0.125,0.023,118.645,0.063,0.110,0.809*45
$GPGGA,094841.10,5104.6853649,N,01345.1068581,E,5,15,0.93,131.3123,M,43.8438,M,1.1,0548*73
$GNGST,094841.10,0.822,0.125,0.023,118.645,0.063,0.111,0.812*47
$GPGGA,094841.20,5104.6853640,N,01345.1068575,E,5,15,0.93,131.3116,M,43.8438,M,1.2,0548*77
$GNGST,094841.20,0.824,0.126,0.023,118.645,0.064,0.111,0.814*40
$GPGGA,094841.30,5104.6853642,N,01345.1068577,E,5,15,0.93,131.3056,M,43.8438,M,1.3,0548*72
$GNGST,094841.30,0.827,0.126,0.023,118.645,0.064,0.111,0.817*41
$GPGGA,094841.40,5104.6853652,N,01345.1068573,E,5,15,0.93,131.3150,M,43.8438,M,1.4,0548*70
$GNGST,094841.40,0.830,0.127,0.023,118.645,0.064,0.112,0.820*46
$GPGGA,094841.50,5104.6853677,N,01345.1068545,E,5,15,0.93,131.3450,M,43.8438,M,1.5,0548*77
$GNGST,094841.50,0.832,0.127,0.023,118.645,0.064,0.112,0.822*47
$GPGGA,094841.60,5104.6853679,N,01345.1068619,E,5,15,0.93,131.3401,M,43.8438,M,0.6,0548*76
$GNGST,094841.60,0.805,0.123,0.022,118.668,0.062,0.108,0.795*44
$GPGGA,094841.70,5104.6853661,N,01345.1068623,E,5,15,0.93,131.3230,M,43.8438,M,0.7,0548*72
$GNGST,094841.70,0.808,0.123,0.022,118.668,0.062,0.109,0.798*44
$GPGGA,094841.80,5104.6853654,N,01345.1068641,E,5,15,0.93,131.3133,M,43.8438,M,0.8,0548*70
$GNGST,094841.80,0.810,0.124,0.022,118.668,0.062,0.109,0.800*4B
$GPGGA,094841.90,5104.6853652,N,01345.1068661,E,5,15,0.93,131.3089,M,43.8438,M,0.9,0548*74
$GNGST,094841.90,0.813,0.124,0.022,118.668,0.063,0.109,0.803*4B
$GPGGA,094842.00,5104.6853674,N,01345.1068620,E,5,15,0.93,131.3424,M,43.8438,M,1.0,0548*74
$GNGST,094842.00,0.815,0.124,0.023,118.668,0.063,0.110,0.805*48
$GPGGA,094842.10,5104.6853670,N,01345.1068637,E,5,15,0.93,131.3226,M,43.8438,M,1.1,0548*72
$GNGST,094842.10,0.818,0.125,0.023,118.668,0.063,0.110,0.808*48
$GPGGA,094842.20,5104.6853673,N,01345.1068625,E,5,15,0.93,131.3292,M,43.8438,M,1.2,0548*7D
$GNGST,094842.20,0.820,0.125,0.023,118.667,0.063,0.110,0.811*47
$GPGGA,094842.30,5104.6853675,N,01345.1068626,E,5,15,0.93,131.3319,M,43.8438,M,1.3,0548*7A
$GNGST,094842.30,0.823,0.126,0.023,118.667,0.063,0.111,0.813*45
$GPGGA,094842.40,5104.6853672,N,01345.1068619,E,5,15,0.93,131.3284,M,43.8438,M,1.4,0548*74
$GNGST,094842.40,0.825,0.126,0.023,118.667,0.064,0.111,0.815*45
$GPGGA,094842.50,5104.6853681,N,01345.1068606,E,5,15,0.93,131.3334,M,43.8438,M,1.5,0548*7C
$GNGST,094842.50,0.828,0.126,0.023,118.667,0.064,0.111,0.818*44
$GPGGA,094842.60,5104.6853689,N,01345.1068632,E,5,15,0.93,131.3683,M,43.8438,M,0.6,0548*7B
$GNGST,094842.60,0.804,0.123,0.022,118.683,0.062,0.108,0.794*42
$GPGGA,094842.70,5104.6853668,N,01345.1068700,E,5,15,0.93,131.3476,M,43.8438,M,0.7,0548*7C
$GNGST,094842.70,0.804,0.123,0.022,118.678,0.062,0.108,0.794*47
$GPGGA,094842.80,5104.6853658,N,01345.1068702,E,5,15,0.93,131.3486,M,43.8438,M,0.8,0548*72
$GNGST,094842.80,0.806,0.123,0.022,118.678,0.062,0.108,0.797*49
$GPGGA,094842.90,5104.6853654,N,01345.1068725,E,5,15,0.93,131.3270,M,43.8438,M,0.9,0548*74
$GNGST,094842.90,0.809,0.123,0.023,118.678,0.062,0.109,0.799*49
$GPGGA,094843.00,5104.6853642,N,01345.1068740,E,5,15,0.93,131.3164,M,43.8438,M,1.0,0548*76
$GNGST,094843.00,0.811,0.124,0.023,118.677,0.063,0.109,0.802*4C
$GPGGA,094843.10,5104.6853656,N,01345.1068750,E,5,15,0.93,131.3240,M,43.8438,M,1.1,0548*77
$GNGST,094843.10,0.814,0.124,0.023,118.677,0.063,0.109,0.804*4E
$GPGGA,094843.20,5104.6853649,N,01345.1068750,E,5,15,0.93,131.3216,M,43.8438,M,1.2,0548*7A
$GNGST,094843.20,0.816,0.125,0.023,118.677,0.063,0.110,0.807*45
$GPGGA,094843.30,5104.6853662,N,01345.1068756,E,5,15,0.93,131.3296,M,43.8438,M,1.3,0548*7D
$GNGST,094843.30,0.819,0.125,0.023,118.677,0.063,0.110,0.809*45
$GPGGA,094843.40,5104.6853675,N,01345.1068739,E,5,15,0.93,131.3461,M,43.8438,M,1.4,0548*7C
$GNGST,094843.40,0.821,0.125,0.023,118.677,0.063,0.110,0.812*43
$GPGGA,094843.50,5104.6853714,N,01345.1068709,E,5,15,0.93,131.3851,M,43.8438,M,1.5,0548*76
$GNGST,094843.50,0.824,0.126,0.023,118.677,0.064,0.111,0.814*44
$GPGGA,094843.60,5104.6853673,N,01345.1068762,E,5,15,0.93,131.3976,M,43.8438,M,0.6,0548*7E
$GNGST,094843.60,0.797,0.122,0.022,118.679,0.061,0.107,0.788*43
$GPGGA,094843.70,5104.6853686,N,01345.1068720,E,5,15,0.93,131.4185,M,43.8438,M,0.7,0548*71
$GNGST,094843.70,0.800,0.122,0.022,118.679,0.062,0.108,0.790*46
$GPGGA,094843.80,5104.6853679,N,01345.1068749,E,5,15,0.93,131.4069,M,43.8438,M,0.8,0548*7D
$GNGST,094843.80,0.802,0.122,0.022,118.679,0.062,0.108,0.793*48
$GPGGA,094843.90,5104.6853648,N,01345.1068816,E,5,15,0.93,131.3485,M,43.8438,M,0.9,0548*7B
$GNGST,094843.90,0.805,0.123,0.022,118.679,0.062,0.108,0.795*49
$GPGGA,094844.00,5104.6853650,N,01345.1068806,E,5,15,0.93,131.3583,M,43.8438,M,1.0,0548*72
$GNGST,094844.00,0.808,0.123,0.022,118.679,0.062,0.109,0.798*46
$GPGGA,094844.10,5104.6853661,N,01345.1068811,E,5,14,0.93,131.3715,M,43.8438,M,1.1,0548*7A
$GNGST,094844.10,0.810,0.123,0.022,118.678,0.062,0.109,0.800*41
$GPGGA,094844.20,5104.6853654,N,01345.1068839,E,5,14,0.93,131.3633,M,43.8438,M,1.2,0548*73
$GNGST,094844.20,0.813,0.124,0.022,118.678,0.063,0.109,0.803*44
$GPGGA,094844.30,5104.6853650,N,01345.1068821,E,5,14,0.93,131.3738,M,43.8438,M,1.3,0548*74
$GNGST,094844.30,0.815,0.124,0.022,118.678,0.063,0.110,0.805*4D
$GPGGA,094844.40,5104.6853638,N,01345.1068858,E,5,14,0.93,131.3532,M,43.8438,M,1.4,0548*7C
$GNGST,094844.40,0.818,0.125,0.022,118.678,0.063,0.110,0.808*4B
$GPGGA,094844.50,5104.6853644,N,01345.1068835,E,5,14,0.93,131.3639,M,43.8438,M,1.5,0548*74
$GNGST,094844.50,0.820,0.125,0.023,118.678,0.063,0.110,0.810*49
$GPGGA,094844.60,5104.6853628,N,01345.1068827,E,5,14,0.93,131.3563,M,43.8438,M,1.6,0548*71
$GNGST,094844.60,0.823,0.125,0.023,118.678,0.063,0.111,0.813*4B
$GPGGA,094844.70,5104.6855332,N,01345.1063098,E,5,15,0.94,136.0210,M,43.8438,M,0.7,0548*7E
$GNGST,094844.70,0.623,0.103,0.021,112.091,0.043,0.096,0.615*4D
$GPGGA,094844.80,5104.6853788,N,01345.1069031,E,5,15,0.94,131.5014,M,43.8438,M,0.8,0548*70
$GNGST,094844.80,0.837,0.157,0.020,104.313,0.043,0.152,0.822*44
$GPGGA,094844.90,5104.6853791,N,01345.1069042,E,5,15,0.94,131.5015,M,43.8438,M,0.9,0548*7D
$GNGST,094844.90,0.839,0.157,0.020,104.313,0.043,0.152,0.824*4D
$GPGGA,094845.00,5104.6853776,N,01345.1069055,E,5,15,0.94,131.4884,M,43.8438,M,1.0,0548*73
$GNGST,094845.00,0.842,0.158,0.020,104.313,0.044,0.153,0.827*43
$GPGGA,094845.10,5104.6853789,N,01345.1069024,E,5,15,0.94,131.5098,M,43.8438,M,1.1,0548*71
$GNGST,094845.10,0.844,0.158,0.020,104.313,0.044,0.153,0.829*4A
$GPGGA,094845.20,5104.6853786,N,01345.1069018,E,5,15,0.94,131.5072,M,43.8438,M,1.2,0548*75
$GNGST,094845.20,0.847,0.159,0.020,104.313,0.044,0.154,0.832*46
$GPGGA,094845.30,5104.6853804,N,01345.1068988,E,5,15,0.94,131.5312,M,43.8438,M,1.3,0548*74
$GNGST,094845.30,0.850,0.159,0.020,104.313,0.044,0.154,0.834*47
$GPGGA,094845.40,5104.6853804,N,01345.1068954,E,5,15,0.94,131.5429,M,43.8438,M,1.4,0548*7A
$GNGST,094845.40,0.852,0.160,0.020,104.313,0.044,0.155,0.837*4A
$GPGGA,094845.50,5104.6853811,N,01345.1068944,E,5,15,0.94,131.5514,M,43.8438,M,1.5,0548*70
$GNGST,094845.50,0.855,0.160,0.020,104.313,0.044,0.155,0.840*4C
$GPGGA,094845.60,5104.6852897,N,01345.1071729,E,5,16,0.92,129.5559,M,43.8438,M,0.6,0548*76
$GNGST,094845.60,0.406,0.077,0.022,110.992,0.034,0.072,0.398*4B
$GPGGA,094845.70,5104.6853474,N,01345.1068841,E,5,16,0.92,131.4540,M,43.8438,M,0.7,0548*7F
$GNGST,094845.70,0.855,0.157,0.025,134.307,0.111,0.114,0.840*4D
$GPGGA,094845.80,5104.6853445,N,01345.1068889,E,5,16,0.92,131.4230,M,43.8438,M,0.8,0548*79
$GNGST,094845.80,0.858,0.157,0.026,134.307,0.111,0.114,0.843*4F
$GPGGA,094845.90,5104.6853438,N,01345.1068873,E,5,16,0.92,131.4257,M,43.8438,M,0.9,0548*77
$GNGST,094845.90,0.860,0.158,0.026,134.307,0.112,0.114,0.845*4F
$GPGGA,094846.00,5104.6853435,N,01345.1068853,E,5,16,0.92,131.4312,M,43.8438,M,1.0,0548*7A
$GNGST,094846.00,0.863,0.158,0.026,134.307,0.112,0.115,0.848*4A
$GPGGA,094846.10,5104.6853459,N,01345.1068858,E,5,16,0.92,131.4492,M,43.8438,M,1.1,0548*74
$GNGST,094846.10,0.866,0.159,0.026,134.307,0.112,0.115,0.851*47
$GPGGA,094846.20,5104.6853470,N,01345.1068819,E,5,16,0.92,131.4688,M,43.8438,M,1.2,0548*73
$GNGST,094846.20,0.868,0.159,0.026,134.307,0.113,0.115,0.853*49
$GPGGA,094846.30,5104.6853465,N,01345.1068841,E,5,16,0.92,131.4585,M,43.8438,M,1.3,0548*74
$GNGST,094846.30,0.871,0.160,0.026,134.307,0.113,0.116,0.856*4C
$GPGGA,094846.40,5104.6853437,N,01345.1068876,E,5,16,0.92,131.4388,M,43.8438,M,1.4,0548*7C
$GNGST,094846.40,0.874,0.160,0.026,134.307,0.114,0.116,0.858*47
$GPGGA,094846.50,5104.6853439,N,01345.1068877,E,5,16,0.92,131.4364,M,43.8438,M,1.5,0548*71
$GNGST,094846.50,0.876,0.161,0.026,134.307,0.114,0.117,0.861*4E
$GPGGA,094846.60,5104.6853473,N,01345.1068854,E,5,16,0.92,131.4594,M,43.8438,M,0.6,0548*76
$GNGST,094846.60,0.850,0.156,0.025,134.320,0.111,0.113,0.835*4B
$GPGGA,094846.70,5104.6853465,N,01345.1068892,E,5,15,0.92,131.4587,M,43.8438,M,0.7,0548*7A
$GNGST,094846.70,0.851,0.156,0.025,134.325,0.111,0.113,0.836*4D
$GPGGA,094846.80,5104.6853475,N,01345.1068909,E,5,15,0.92,131.4556,M,43.8438,M,0.8,0548*74
$GNGST,094846.80,0.853,0.157,0.025,134.325,0.111,0.113,0.839*4E
$GPGGA,094846.90,5104.6853477,N,01345.1068889,E,5,15,0.92,131.4745,M,43.8438,M,0.9,0548*7F
$GNGST,094846.90,0.856,0.157,0.025,134.325,0.111,0.114,0.841*42
$GPGGA,094847.00,5104.6853438,N,01345.1068936,E,5,15,0.92,131.4301,M,43.8438,M,1.0,0548*75
$GNGST,094847.00,0.859,0.158,0.026,134.325,0.112,0.114,0.844*4F
$GPGGA,094847.10,5104.6853426,N,01345.1068939,E,5,15,0.92,131.4291,M,43.8438,M,1.1,0548*7D
$GNGST,094847.10,0.862,0.158,0.026,134.325,0.112,0.115,0.847*44
$GPGGA,094847.20,5104.6853453,N,01345.1068912,E,5,15,0.92,131.4462,M,43.8438,M,1.2,0548*7C
$GNGST,094847.20,0.864,0.159,0.026,134.325,0.112,0.115,0.849*4E
$GPGGA,094847.30,5104.6853424,N,01345.1068918,E,5,15,0.92,131.4336,M,43.8438,M,1.3,0548*70
$GNGST,094847.30,0.867,0.159,0.026,134.325,0.113,0.115,0.852*47
$GPGGA,094847.40,5104.6853443,N,01345.1068931,E,5,15,0.92,131.4375,M,43.8438,M,1.4,0548*7D
$GNGST,094847.40,0.870,0.160,0.026,134.325,0.113,0.116,0.854*49
$GPGGA,094847.50,5104.6853423,N,01345.1068945,E,5,15,0.92,131.4292,M,43.8438,M,1.5,0548*70
$GNGST,094847.50,0.872,0.160,0.026,134.325,0.113,0.116,0.857*49
$GPGGA,094847.60,5104.6851914,N,01345.1071017,E,5,16,0.90,129.4103,M,43.8438,M,0.6,0548*7F
$GNGST,094847.60,0.732,0.135,0.026,136.857,0.100,0.094,0.719*41
$GPGGA,094847.70,5104.6853695,N,01345.1068274,E,5,16,0.90,131.9006,M,43.8438,M,0.7,0548*74
$GNGST,094847.70,0.868,0.162,0.026,144.142,0.132,0.097,0.853*49
$GPGGA,094847.80,5104.6853681,N,01345.1068277,E,5,16,0.90,131.8972,M,43.8438,M,0.8,0548*79
$GNGST,094847.80,0.871,0.162,0.026,144.142,0.132,0.097,0.855*48
$GPGGA,094847.90,5104.6853681,N,01345.1068279,E,5,16,0.90,131.8971,M,43.8438,M,0.9,0548*74
$GNGST,094847.90,0.874,0.163,0.026,144.142,0.133,0.098,0.858*4E
$GPGGA,094848.00,5104.6853671,N,01345.1068281,E,5,16,0.90,131.8965,M,43.8438,M,1.0,0548*77
$GNGST,094848.00,0.877,0.163,0.026,144.142,0.133,0.098,0.861*41
$GPGGA,094848.10,5104.6853687,N,01345.1068317,E,5,16,0.90,131.8961,M,43.8438,M,1.1,0548*74
$GNGST,094848.10,0.879,0.164,0.026,144.142,0.134,0.098,0.863*4C
$GPGGA,094848.20,5104.6853720,N,01345.1068300,E,5,16,0.90,131.9162,M,43.8438,M,1.2,0548*74
$GNGST,094848.20,0.882,0.164,0.026,144.142,0.134,0.099,0.866*4F
$GPGGA,094848.30,5104.6853740,N,01345.1068308,E,5,16,0.90,131.9239,M,43.8438,M,1.3,0548*77
$GNGST,094848.30,0.885,0.165,0.026,144.142,0.135,0.099,0.869*46
$GPGGA,094848.40,5104.6853759,N,01345.1068309,E,5,16,0.90,131.9387,M,43.8438,M,1.4,0548*7A
$GNGST,094848.40,0.887,0.165,0.026,144.142,0.135,0.099,0.872*49
$GPGGA,094848.50,5104.6853739,N,01345.1068322,E,5,16,0.90,131.9228,M,43.8438,M,1.5,0548*71
$GNGST,094848.50,0.890,0.166,0.026,144.142,0.135,0.100,0.874*4A
$GPGGA,094848.60,5104.6856248,N,01345.1065125,E,5,15,0.92,135.1744,M,43.8438,M,0.6,0548*7C
$GNGST,094848.60,0.822,0.152,0.025,141.428,0.120,0.097,0.807*47
$GPGGA,094848.70,5104.6853448,N,01345.1068962,E,5,14,0.92,131.4796,M,43.8438,M,0.7,0548*76
$GNGST,094848.70,0.843,0.155,0.025,134.372,0.110,0.112,0.828*4E
$GPGGA,094848.80,5104.6853443,N,01345.1068958,E,5,14,0.92,131.4778,M,43.8438,M,0.8,0548*74
$GNGST,094848.80,0.846,0.155,0.025,134.372,0.110,0.112,0.831*4C
$GPGGA,094848.90,5104.6853485,N,01345.1068920,E,5,14,0.92,131.5118,M,43.8438,M,0.9,0548*70
$GNGST,094848.90,0.848,0.156,0.025,134.372,0.110,0.113,0.833*43
$GPGGA,094849.00,5104.6853503,N,01345.1068915,E,5,14,0.92,131.5186,M,43.8438,M,1.0,0548*7E
$GNGST,094849.00,0.851,0.156,0.025,134.372,0.111,0.113,0.836*47
$GPGGA,094849.10,5104.6853520,N,01345.1068863,E,5,14,0.92,131.5426,M,43.8438,M,1.1,0548*70
$GNGST,094849.10,0.854,0.157,0.025,134.372,0.111,0.113,0.839*4D
$GPGGA,094849.20,5104.6853501,N,01345.1068907,E,5,14,0.92,131.5238,M,43.8438,M,1.2,0548*79
$GNGST,094849.20,0.856,0.157,0.026,134.372,0.111,0.114,0.841*47
$GPGGA,094849.30,5104.6853488,N,01345.1068929,E,5,14,0.92,131.5195,M,43.8438,M,1.3,0548*71
$GNGST,094849.30,0.859,0.158,0.026,134.371,0.112,0.114,0.844*43
$GPGGA,094849.40,5104.6853475,N,01345.1068902,E,5,14,0.92,131.5174,M,43.8438,M,1.4,0548*75
$GNGST,094849.40,0.861,0.158,0.026,134.371,0.112,0.114,0.846*4D
$GPGGA,094849.50,5104.6853512,N,01345.1068879,E,5,14,0.92,131.5457,M,43.8438,M,1.5,0548*7C
$GNGST,094849.50,0.864,0.159,0.026,134.371,0.112,0.115,0.849*46
$GPGGA,094849.60,5104.6855787,N,01345.1063957,E,5,15,0.95,135.5004,M,43.8438,M,0.6,0548*73
$GNGST,094849.60,0.458,0.083,0.023,120.753,0.047,0.072,0.450*41
$GPGGA,094849.70,5104.6855775,N,01345.1063897,E,5,15,0.95,135.5636,M,43.8438,M,0.7,0548*74
$GNGST,094849.70,0.459,0.083,0.023,120.821,0.047,0.072,0.451*4A
$GPGGA,094849.80,5104.6855783,N,01345.1063863,E,5,15,0.95,135.5853,M,43.8438,M,0.8,0548*7B
$GNGST,094849.80,0.460,0.083,0.023,120.821,0.047,0.073,0.452*4D
$GPGGA,094849.90,5104.6855760,N,01345.1063965,E,5,15,0.95,135.5254,M,43.8438,M,0.9,0548*7C
$GNGST,094849.90,0.462,0.084,0.023,120.820,0.047,0.073,0.453*49
$GPGGA,094850.00,5104.6855770,N,01345.1063995,E,5,15,0.95,135.4829,M,43.8438,M,1.0,0548*7A
$GNGST,094850.00,0.463,0.084,0.023,120.820,0.047,0.073,0.455*4F
$GPGGA,094850.10,5104.6855789,N,01345.1063832,E,5,14,0.95,135.5806,M,43.8438,M,1.1,0548*7D
$GNGST,094850.10,0.464,0.084,0.023,120.819,0.047,0.073,0.456*40
$GPGGA,094850.20,5104.6855808,N,01345.1063735,E,5,14,0.95,135.6307,M,43.8438,M,1.2,0548*7A
$GNGST,094850.20,0.466,0.084,0.023,120.819,0.048,0.073,0.458*40
$GPGGA,094850.30,5104.6855792,N,01345.1063758,E,5,14,0.95,135.6217,M,43.8438,M,1.3,0548*7D
$GNGST,094850.30,0.467,0.085,0.023,120.819,0.048,0.074,0.459*47
$GPGGA,094850.40,5104.6855791,N,01345.1063758,E,5,14,0.95,135.6370,M,43.8438,M,1.4,0548*7E
$GNGST,094850.40,0.469,0.085,0.023,120.819,0.048,0.074,0.460*44
$GPGGA,094850.50,5104.6855810,N,01345.1063700,E,5,14,0.95,135.6822,M,43.8438,M,1.5,0548*79
$GNGST,094850.50,0.470,0.085,0.023,120.818,0.048,0.074,0.462*4E
$GPGGA,094850.60,5104.6853427,N,01345.1068876,E,5,16,0.92,131.5180,M,43.8438,M,0.6,0548*70
$GNGST,094850.60,0.833,0.153,0.025,134.397,0.108,0.110,0.818*44
$GPGGA,094850.70,5104.6853431,N,01345.1068867,E,5,16,0.92,131.5278,M,43.8438,M,0.7,0548*73
$GNGST,094850.70,0.835,0.153,0.025,134.397,0.109,0.111,0.821*49
$GPGGA,094850.80,5104.6853423,N,01345.1068884,E,5,16,0.92,131.5186,M,43.8438,M,0.8,0548*7F
$GNGST,094850.80,0.838,0.154,0.025,134.397,0.109,0.111,0.823*4E
$GPGGA,094850.90,5104.6853399,N,01345.1068906,E,5,16,0.92,131.5036,M,43.8438,M,0.9,0548*78
$GNGST,094850.90,0.841,0.154,0.025,134.397,0.109,0.112,0.826*47
$GPGGA,094851.00,5104.6853409,N,01345.1068881,E,5,16,0.92,131.5186,M,43.8438,M,1.0,0548*72
$GNGST,094851.00,0.843,0.155,0.025,134.397,0.110,0.112,0.829*4B
$GPGGA,094851.10,5104.6853402,N,01345.1068897,E,5,16,0.92,131.5046,M,43.8438,M,1.1,0548*73
$GNGST,094851.10,0.846,0.155,0.025,134.397,0.110,0.112,0.831*46
$GPGGA,094851.20,5104.6853435,N,01345.1068889,E,5,16,0.92,131.5174,M,43.8438,M,1.2,0548*78
$GNGST,094851.20,0.848,0.156,0.025,134.397,0.110,0.113,0.834*4C
$GPGGA,094851.30,5104.6853441,N,01345.1068870,E,5,15,0.92,131.5312,M,43.8438,M,1.3,0548*7C
$GNGST,094851.30,0.851,0.156,0.025,134.396,0.111,0.113,0.836*47
$GPGGA,094851.40,5104.6853412,N,01345.1068898,E,5,15,0.92,131.5108,M,43.8438,M,1.4,0548*75
$GNGST,094851.40,0.854,0.157,0.025,134.396,0.111,0.113,0.839*4B
$GPGGA,094851.50,5104.6853444,N,01345.1068871,E,5,15,0.92,131.5400,M,43.8438,M,1.5,0548*7C
$GNGST,094851.50,0.856,0.157,0.025,134.396,0.111,0.114,0.841*40
$GPGGA,094851.60,5104.6853808,N,01345.1068947,E,5,15,0.95,131.6945,M,43.8438,M,0.6,0548*75
$GNGST,094851.60,0.805,0.150,0.019,104.420,0.042,0.146,0.790*47
$GPGGA,094851.70,5104.6853807,N,01345.1068935,E,5,13,0.95,131.7030,M,43.8438,M,0.7,0548*73
$GNGST,094851.70,0.807,0.151,0.019,104.420,0.042,0.146,0.793*46
$GPGGA,094851.80,5104.6853820,N,01345.1068938,E,5,13,0.95,131.7053,M,43.8438,M,0.8,0548*7E
$GNGST,094851.80,0.810,0.151,0.019,104.420,0.042,0.147,0.795*48
$GPGGA,094851.90,5104.6853813,N,01345.1068934,E,5,13,0.95,131.7043,M,43.8438,M,0.9,0548*73
$GNGST,094851.90,0.812,0.152,0.019,104.420,0.042,0.147,0.798*45
$GPGGA,094852.00,5104.6853798,N,01345.1068962,E,5,13,0.95,131.6842,M,43.8438,M,1.0,0548*76
$GNGST,094852.00,0.815,0.152,0.019,104.420,0.042,0.147,0.800*46
$GPGGA,094852.10,5104.6853808,N,01345.1068930,E,5,13,0.95,131.6955,M,43.8438,M,1.1,0548*70
$GNGST,094852.10,0.818,0.153,0.019,104.420,0.042,0.148,0.803*47
$GPGGA,094852.20,5104.6853820,N,01345.1068939,E,5,13,0.95,131.6958,M,43.8438,M,1.2,0548*7E
$GNGST,094852.20,0.820,0.153,0.019,104.420,0.043,0.148,0.805*48
$GPGGA,094852.30,5104.6853819,N,01345.1068945,E,5,13,0.95,131.7033,M,43.8438,M,1.3,0548*7A
$GNGST,094852.30,0.823,0.154,0.019,104.420,0.043,0.149,0.808*41
$GPGGA,094852.40,5104.6853807,N,01345.1068972,E,5,13,0.95,131.6880,M,43.8438,M,1.4,0548*70
$GNGST,094852.40,0.825,0.154,0.020,104.420,0.043,0.149,0.810*43
$GPGGA,094852.50,5104.6853800,N,01345.1068992,E,5,13,0.95,131.6843,M,43.8438,M,1.5,0548*76
$GNGST,094852.50,0.828,0.155,0.020,104.420,0.043,0.150,0.813*45
