$GPGGA,090424.40,5100.7521204,N,01347.4975858,E,4,14,0.84,122.7254,M,43.9749,M,1.4,0486*77
$GNGST,090424.40,0.063,0.040,0.008,4.144,0.040,0.009,0.047*44
$GPGGA,090424.50,5100.7521212,N,01347.4975838,E,4,14,0.84,122.7234,M,43.9749,M,1.5,0486*70
$GNGST,090424.50,0.063,0.040,0.008,4.142,0.040,0.009,0.047*43
$GPGGA,090424.60,5100.7521237,N,01347.4975851,E,4,14,0.84,122.7282,M,43.9749,M,1.6,0486*75
$GNGST,090424.60,0.063,0.040,0.008,4.140,0.040,0.009,0.047*42
$GPGGA,090424.70,5100.7521239,N,01347.4975850,E,4,14,0.84,122.7297,M,43.9749,M,0.7,0486*7F
$GNGST,090424.70,0.061,0.040,0.009,5.956,0.040,0.009,0.045*4C
$GPGGA,090424.80,5100.7521225,N,01347.4975870,E,4,14,0.84,122.7272,M,43.9749,M,0.8,0486*7B
$GNGST,090424.80,0.061,0.040,0.009,5.954,0.040,0.009,0.045*41
$GPGGA,090424.90,5100.7521208,N,01347.4975872,E,4,14,0.84,122.7214,M,43.9749,M,0.9,0486*76
$GNGST,090424.90,0.061,0.040,0.009,5.952,0.040,0.010,0.045*4E
$GPGGA,090425.00,5100.7521198,N,01347.4975879,E,4,14,0.84,122.7262,M,43.9749,M,1.0,0486*76
$GNGST,090425.00,0.061,0.040,0.009,5.950,0.040,0.010,0.045*44
$GPGGA,090425.10,5100.7521202,N,01347.4975877,E,4,14,0.84,122.7252,M,43.9749,M,1.1,0486*7B
$GNGST,090425.10,0.061,0.040,0.009,5.948,0.040,0.010,0.045*4C
$GPGGA,090425.20,5100.7521208,N,01347.4975936,E,4,14,0.84,122.7220,M,43.9749,M,1.2,0486*70
$GNGST,090425.20,0.061,0.040,0.009,5.946,0.040,0.010,0.045*41
$GPGGA,090425.30,5100.7521217,N,01347.4975903,E,4,14,0.84,122.7239,M,43.9749,M,1.3,0486*70
$GNGST,090425.30,0.061,0.040,0.009,5.944,0.040,0.010,0.045*42
$GPGGA,090425.40,5100.7521190,N,01347.4975910,E,4,14,0.84,122.7213,M,43.9749,M,1.4,0486*76
$GNGST,090425.40,0.061,0.040,0.009,5.942,0.040,0.010,0.045*43
$GPGGA,090425.50,5100.7521200,N,01347.4975889,E,4,14,0.84,122.7293,M,43.9749,M,1.5,0486*75
$GNGST,090425.50,0.061,0.040,0.009,5.940,0.040,0.010,0.045*40
$GPGGA,090425.60,5100.7521189,N,01347.4975922,E,4,14,0.84,122.7300,M,43.9749,M,0.6,0486*7D
$GNGST,090425.60,0.061,0.040,0.009,5.958,0.040,0.009,0.045*42
$GPGGA,090425.70,5100.7521213,N,01347.4975883,E,4,14,0.84,122.7240,M,43.9749,M,0.7,0486*72
$GNGST,090425.70,0.061,0.039,0.007,2.738,0.039,0.007,0.046*4F
$GPGGA,090425.80,5100.7521207,N,01347.4975892,E,4,14,0.84,122.7257,M,43.9749,M,0.8,0486*71
$GNGST,090425.80,0.061,0.039,0.007,2.736,0.039,0.007,0.046*4E
$GPGGA,090425.90,5100.7521216,N,01347.4975861,E,4,14,0.84,122.7269,M,43.9749,M,0.9,0486*70
$GNGST,090425.90,0.061,0.039,0.007,2.734,0.039,0.007,0.046*4D
$GPGGA,090426.00,5100.7521203,N,01347.4975842,E,4,14,0.84,122.7276,M,43.9749,M,1.0,0486*79
$GNGST,090426.00,0.061,0.039,0.007,2.732,0.039,0.007,0.046*41
$GPGGA,090426.10,5100.7521188,N,01347.4975869,E,4,14,0.84,122.7290,M,43.9749,M,1.1,0486*78
$GNGST,090426.10,0.061,0.039,0.007,2.731,0.039,0.007,0.046*43
$GPGGA,090426.20,5100.7521182,N,01347.4975873,E,4,14,0.84,122.7377,M,43.9749,M,1.2,0486*71
$GNGST,090426.20,0.061,0.039,0.007,2.729,0.039,0.007,0.046*49
$GPGGA,090426.30,5100.7521194,N,01347.4975907,E,4,14,0.84,122.7338,M,43.9749,M,1.3,0486*7F
$GNGST,090426.30,0.061,0.039,0.007,2.727,0.039,0.007,0.046*46
$GPGGA,090426.40,5100.7521207,N,01347.4975891,E,4,14,0.84,122.7294,M,43.9749,M,1.4,0486*7F
$GNGST,090426.40,0.061,0.039,0.007,2.725,0.039,0.007,0.046*43
$GPGGA,090426.50,5100.7521201,N,01347.4975875,E,4,14,0.84,122.7301,M,43.9749,M,1.5,0486*7E
$GNGST,090426.50,0.061,0.039,0.007,2.723,0.039,0.007,0.046*44
$GPGGA,090426.60,5100.7521241,N,01347.4975915,E,4,14,0.84,122.7251,M,43.9749,M,0.6,0486*78
$GNGST,090426.60,0.061,0.039,0.007,2.740,0.039,0.007,0.046*42
$GPGGA,090426.70,5100.7521226,N,01347.4975906,E,4,14,0.84,122.7243,M,43.9749,M,0.7,0486*78
$GNGST,090426.70,0.063,0.041,0.009,4.024,0.041,0.010,0.047*4B
$GPGGA,090426.80,5100.7521217,N,01347.4975909,E,4,14,0.84,122.7288,M,43.9749,M,0.8,0486*72
$GNGST,090426.80,0.063,0.041,0.009,4.022,0.041,0.010,0.047*42
$GPGGA,090426.90,5100.7521233,N,01347.4975897,E,4,14,0.84,122.7273,M,43.9749,M,0.9,0486*76
$GNGST,090426.90,0.063,0.041,0.009,4.020,0.041,0.010,0.047*41
$GPGGA,090427.00,5100.7521249,N,01347.4975899,E,4,14,0.84,122.7272,M,43.9749,M,1.0,0486*74
$GNGST,090427.00,0.063,0.041,0.009,4.018,0.041,0.010,0.047*42
$GPGGA,090427.10,5100.7521214,N,01347.4975912,E,4,14,0.84,122.7273,M,43.9749,M,1.1,0486*7F
$GNGST,090427.10,0.063,0.041,0.009,4.016,0.041,0.010,0.047*4D
$GPGGA,090427.20,5100.7521225,N,01347.4975913,E,4,14,0.84,122.7286,M,43.9749,M,1.2,0486*76
$GNGST,090427.20,0.063,0.041,0.009,4.015,0.041,0.010,0.047*4D
$GPGGA,090427.30,5100.7521224,N,01347.4975887,E,4,14,0.84,122.7195,M,43.9749,M,1.3,0486*7A
$GNGST,090427.30,0.063,0.041,0.009,4.013,0.041,0.010,0.047*4A
$GPGGA,090427.40,5100.7521216,N,01347.4975864,E,4,14,0.84,122.7239,M,43.9749,M,1.4,0486*73
$GNGST,090427.40,0.063,0.041,0.009,4.011,0.041,0.010,0.047*4F
$GPGGA,090427.50,5100.7521252,N,01347.4975894,E,4,14,0.84,122.7262,M,43.9749,M,1.5,0486*72
$GNGST,090427.50,0.063,0.041,0.009,4.009,0.041,0.010,0.047*47
$GPGGA,090427.60,5100.7521255,N,01347.4975898,E,4,14,0.84,122.7232,M,43.9749,M,0.6,0486*7D
$GNGST,090427.60,0.063,0.041,0.009,4.026,0.041,0.010,0.047*49
$GPGGA,090427.70,5100.7521236,N,01347.4975892,E,4,14,0.84,122.7217,M,43.9749,M,0.7,0486*75
$GNGST,090427.70,0.056,0.037,0.007,5.761,0.036,0.008,0.042*48
$GPGGA,090427.80,5100.7521234,N,01347.4975904,E,4,14,0.84,122.7179,M,43.9749,M,0.8,0486*72
$GNGST,090427.80,0.056,0.037,0.007,5.758,0.036,0.008,0.042*4D
$GPGGA,090427.90,5100.7521215,N,01347.4975903,E,4,14,0.84,122.7199,M,43.9749,M,0.9,0486*78
$GNGST,090427.90,0.056,0.037,0.007,5.756,0.036,0.008,0.042*42
$GPGGA,090428.00,5100.7521234,N,01347.4975899,E,4,14,0.84,122.7209,M,43.9749,M,1.0,0486*7D
$GNGST,090428.00,0.056,0.037,0.007,5.754,0.036,0.008,0.042*46
$GPGGA,090428.10,5100.7521243,N,01347.4975907,E,4,14,0.84,122.7236,M,43.9749,M,1.1,0486*77
$GNGST,090428.10,0.056,0.037,0.007,5.752,0.036,0.008,0.042*41
$GPGGA,090428.20,5100.7521246,N,01347.4975919,E,4,14,0.84,122.7257,M,43.9749,M,1.2,0486*7A
$GNGST,090428.20,0.056,0.037,0.007,5.749,0.036,0.008,0.042*48
$GPGGA,090428.30,5100.7521248,N,01347.4975943,E,4,14,0.84,122.7329,M,43.9749,M,1.3,0486*73
$GNGST,090428.30,0.056,0.037,0.007,5.747,0.036,0.008,0.042*47
$GPGGA,090428.40,5100.7521227,N,01347.4975915,E,4,14,0.84,122.7188,M,43.9749,M,1.4,0486*70
$GNGST,090428.40,0.056,0.037,0.007,5.745,0.036,0.008,0.042*42
$GPGGA,090428.50,5100.7521221,N,01347.4975912,E,4,14,0.84,122.7250,M,43.9749,M,1.5,0486*77
$GNGST,090428.50,0.056,0.037,0.007,5.743,0.036,0.008,0.042*45
$GPGGA,090428.60,5100.7521224,N,01347.4975876,E,4,14,0.84,122.7217,M,43.9749,M,0.6,0486*73
$GNGST,090428.60,0.056,0.037,0.007,5.763,0.036,0.008,0.042*44
$GPGGA,090428.70,5100.7521230,N,01347.4975900,E,4,14,0.84,122.7227,M,43.9749,M,0.7,0486*75
$GNGST,090428.70,0.064,0.042,0.008,5.050,0.042,0.009,0.048*46
$GPGGA,090428.80,5100.7521199,N,01347.4975878,E,4,14,0.84,122.7217,M,43.9749,M,0.8,0486*78
$GNGST,090428.80,0.064,0.042,0.008,5.048,0.042,0.009,0.048*40
$GPGGA,090428.90,5100.7521225,N,01347.4975906,E,4,14,0.84,122.7277,M,43.9749,M,0.9,0486*72
$GNGST,090428.90,0.064,0.042,0.008,5.047,0.042,0.009,0.048*4E
$GPGGA,090429.00,5100.7521222,N,01347.4975905,E,4,14,0.84,122.7202,M,43.9749,M,1.0,0486*74
$GNGST,090429.00,0.064,0.042,0.008,5.045,0.042,0.009,0.048*44
$GPGGA,090429.10,5100.7521200,N,01347.4975895,E,4,14,0.84,122.7239,M,43.9749,M,1.1,0486*74
$GNGST,090429.10,0.064,0.042,0.008,5.043,0.042,0.009,0.048*43
$GPGGA,090429.20,5100.7521217,N,01347.4975868,E,4,14,0.84,122.7294,M,43.9749,M,1.2,0486*77
$GNGST,090429.20,0.064,0.042,0.008,5.042,0.042,0.009,0.048*41
$GPGGA,090429.30,5100.7521222,N,01347.4975855,E,4,14,0.84,122.7255,M,43.9749,M,1.3,0486*72
$GNGST,090429.30,0.064,0.042,0.008,5.040,0.042,0.009,0.048*42
$GPGGA,090429.40,5100.7521236,N,01347.4975860,E,4,14,0.84,122.7239,M,43.9749,M,1.4,0486*7B
$GNGST,090429.40,0.064,0.042,0.008,5.038,0.042,0.009,0.048*4A
$GPGGA,090429.50,5100.7521230,N,01347.4975867,E,4,14,0.84,122.7236,M,43.9749,M,1.5,0486*75
$GNGST,090429.50,0.064,0.042,0.008,5.037,0.042,0.009,0.048*44
$GPGGA,090429.60,5100.7521243,N,01347.4975846,E,4,14,0.84,122.7227,M,43.9749,M,0.6,0486*73
$GNGST,090429.60,0.064,0.042,0.008,5.052,0.042,0.009,0.048*44
$GPGGA,090429.70,5100.7521226,N,01347.4975847,E,4,14,0.84,122.7245,M,43.9749,M,0.7,0486*75
$GNGST,090429.70,0.064,0.042,0.008,5.087,0.041,0.009,0.048*4E
$GPGGA,090429.80,5100.7521220,N,01347.4975822,E,4,14,0.84,122.7212,M,43.9749,M,0.8,0486*72
$GNGST,090429.80,0.064,0.042,0.008,5.085,0.041,0.009,0.048*43
$GPGGA,090429.90,5100.7521213,N,01347.4975867,E,4,14,0.84,122.7261,M,43.9749,M,0.9,0486*77
$GNGST,090429.90,0.064,0.042,0.008,5.084,0.041,0.009,0.048*43
$GPGGA,090430.00,5100.7521221,N,01347.4975858,E,4,14,0.84,122.7270,M,43.9749,M,1.0,0486*73
$GNGST,090430.00,0.064,0.042,0.008,5.082,0.041,0.009,0.048*44
$GPGGA,090430.10,5100.7521234,N,01347.4975858,E,4,14,0.84,122.7234,M,43.9749,M,1.1,0486*77
$GNGST,090430.10,0.064,0.042,0.008,5.080,0.041,0.009,0.048*47
$GPGGA,090430.20,5100.7521203,N,01347.4975871,E,4,14,0.84,122.7171,M,43.9749,M,1.2,0486*7A
$GNGST,090430.20,0.064,0.042,0.008,5.079,0.041,0.009,0.048*42
$GPGGA,090430.30,5100.7521194,N,01347.4975882,E,4,14,0.84,122.7184,M,43.9749,M,1.3,0486*71
$GNGST,090430.30,0.064,0.042,0.008,5.077,0.041,0.009,0.048*4D
$GPGGA,090430.40,5100.7521190,N,01347.4975880,E,4,14,0.84,122.7202,M,43.9749,M,1.4,0486*7A
$GNGST,090430.40,0.064,0.042,0.008,5.075,0.041,0.009,0.048*48
$GPGGA,090430.50,5100.7521202,N,01347.4975913,E,4,14,0.84,122.7202,M,43.9749,M,1.5,0486*79
$GNGST,090430.50,0.064,0.042,0.008,5.074,0.041,0.009,0.048*48
$GPGGA,090430.60,5100.7521204,N,01347.4975904,E,4,14,0.84,122.7194,M,43.9749,M,0.6,0486*74
$GNGST,090430.60,0.064,0.042,0.008,5.089,0.041,0.009,0.048*49
$GPGGA,090430.70,5100.7521223,N,01347.4975913,E,4,14,0.84,122.7221,M,43.9749,M,0.7,0486*7A
$GNGST,090430.70,0.062,0.040,0.009,3.281,0.040,0.010,0.047*47
$GPGGA,090430.80,5100.7521240,N,01347.4975891,E,4,14,0.84,122.7242,M,43.9749,M,0.8,0486*71
$GNGST,090430.80,0.062,0.040,0.009,3.279,0.040,0.010,0.047*4F
$GPGGA,090430.90,5100.7521225,N,01347.4975883,E,4,14,0.84,122.7289,M,43.9749,M,0.9,0486*76
$GNGST,090430.90,0.062,0.040,0.009,3.277,0.040,0.010,0.047*40
$GPGGA,090431.00,5100.7521210,N,01347.4975897,E,4,14,0.84,122.7233,M,43.9749,M,1.0,0486*74
$GNGST,090431.00,0.062,0.040,0.009,3.275,0.040,0.010,0.047*4A
$GPGGA,090431.10,5100.7521218,N,01347.4975894,E,4,14,0.84,122.7163,M,43.9749,M,1.1,0486*79
$GNGST,090431.10,0.062,0.040,0.009,3.274,0.040,0.010,0.047*4A
$GPGGA,090431.20,5100.7521223,N,01347.4975914,E,4,14,0.84,122.7184,M,43.9749,M,1.2,0486*71
$GNGST,090431.20,0.062,0.040,0.009,3.272,0.040,0.010,0.047*4F
$GPGGA,090431.30,5100.7521220,N,01347.4975902,E,4,14,0.84,122.7153,M,43.9749,M,1.3,0486*7F
$GNGST,090431.30,0.062,0.040,0.009,3.270,0.040,0.010,0.047*4C
$GPGGA,090431.40,5100.7521201,N,01347.4975923,E,4,14,0.84,122.7174,M,43.9749,M,1.4,0486*7A
$GNGST,090431.40,0.062,0.040,0.009,3.268,0.040,0.010,0.047*42
$GPGGA,090431.50,5100.7521221,N,01347.4975892,E,4,14,0.84,122.7195,M,43.9749,M,1.5,0486*7C
$GNGST,090431.50,0.062,0.040,0.009,3.266,0.040,0.010,0.047*4D
$GPGGA,090431.60,5100.7521202,N,01347.4975906,E,4,14,0.84,122.7191,M,43.9749,M,0.6,0486*74
$GNGST,090431.60,0.062,0.040,0.009,3.283,0.040,0.010,0.047*45
$GPGGA,090431.70,5100.7521191,N,01347.4975864,E,4,14,0.84,122.7193,M,43.9749,M,0.7,0486*7A
$GNGST,090431.70,0.060,0.038,0.007,3.258,0.038,0.007,0.046*49
$GPGGA,090431.80,5100.7521192,N,01347.4975872,E,4,14,0.84,122.7163,M,43.9749,M,0.8,0486*71
$GNGST,090431.80,0.060,0.038,0.007,3.257,0.038,0.007,0.046*49
$GPGGA,090431.90,5100.7521203,N,01347.4975847,E,4,14,0.84,122.7104,M,43.9749,M,0.9,0486*7D
$GNGST,090431.90,0.060,0.038,0.007,3.255,0.038,0.007,0.046*4A
$GPGGA,090432.00,5100.7521220,N,01347.4975884,E,4,14,0.84,122.7170,M,43.9749,M,1.0,0486*72
$GNGST,090432.00,0.060,0.038,0.007,3.253,0.038,0.007,0.046*46
$GPGGA,090432.10,5100.7521227,N,01347.4975888,E,4,14,0.84,122.7149,M,43.9749,M,1.1,0486*73
$GNGST,090432.10,0.060,0.038,0.007,3.251,0.038,0.007,0.046*45
$GPGGA,090432.20,5100.7521228,N,01347.4975884,E,4,14,0.84,122.7078,M,43.9749,M,1.2,0486*73
$GNGST,090432.20,0.060,0.038,0.007,3.249,0.038,0.007,0.046*4F
$GPGGA,090432.30,5100.7521224,N,01347.4975895,E,4,14,0.84,122.7137,M,43.9749,M,1.3,0486*75
$GNGST,090432.30,0.060,0.038,0.007,3.247,0.038,0.007,0.046*40
$GPGGA,090432.40,5100.7521206,N,01347.4975900,E,4,14,0.84,122.7114,M,43.9749,M,1.4,0486*79
$GNGST,090432.40,0.060,0.038,0.007,3.245,0.038,0.007,0.046*45
$GPGGA,090432.50,5100.7521224,N,01347.4975911,E,4,14,0.84,122.7097,M,43.9749,M,1.5,0486*73
$GNGST,090432.50,0.060,0.038,0.007,3.243,0.038,0.007,0.046*42
$GPGGA,090432.60,5100.7521215,N,01347.4975892,E,4,14,0.84,122.7134,M,43.9749,M,0.6,0486*72
$GNGST,090432.60,0.060,0.038,0.007,3.260,0.038,0.007,0.046*40
$GPGGA,090432.70,5100.7521198,N,01347.4975894,E,4,14,0.84,122.7103,M,43.9749,M,0.7,0486*76
$GNGST,090432.70,0.063,0.040,0.008,4.112,0.040,0.008,0.047*42
$GPGGA,090432.80,5100.7521203,N,01347.4975918,E,4,14,0.84,122.7084,M,43.9749,M,0.8,0486*7C
$GNGST,090432.80,0.063,0.040,0.008,4.110,0.040,0.008,0.047*4F
$GPGGA,090432.90,5100.7521228,N,01347.4975910,E,4,14,0.84,122.7176,M,43.9749,M,0.9,0486*71
$GNGST,090432.90,0.063,0.040,0.008,4.108,0.040,0.008,0.047*47
$GPGGA,090433.00,5100.7521241,N,01347.4975928,E,4,14,0.84,122.7171,M,43.9749,M,1.0,0486*72
$GNGST,090433.00,0.063,0.040,0.008,4.106,0.040,0.008,0.047*41
$GPGGA,090433.10,5100.7521224,N,01347.4975915,E,4,14,0.84,122.7161,M,43.9749,M,1.1,0486*7E
$GNGST,090433.10,0.063,0.040,0.008,4.105,0.040,0.008,0.047*43
$GPGGA,090433.20,5100.7521209,N,01347.4975906,E,4,14,0.84,122.7194,M,43.9749,M,1.2,0486*79
$GNGST,090433.20,0.063,0.040,0.008,4.103,0.040,0.008,0.047*46
$GPGGA,090433.30,5100.7521227,N,01347.4975907,E,4,14,0.84,122.7192,M,43.9749,M,1.3,0486*72
$GNGST,090433.30,0.063,0.041,0.008,4.101,0.040,0.008,0.047*44
$GPGGA,090433.40,5100.7521219,N,01347.4975903,E,4,14,0.84,122.7214,M,43.9749,M,1.4,0486*76
$GNGST,090433.40,0.063,0.041,0.008,4.099,0.040,0.008,0.047*43
$GPGGA,090433.50,5100.7521219,N,01347.4975898,E,4,14,0.84,122.7182,M,43.9749,M,1.5,0486*79
$GNGST,090433.50,0.063,0.041,0.008,4.098,0.040,0.008,0.047*43
$GPGGA,090433.60,5100.7521216,N,01347.4975886,E,4,14,0.84,122.7205,M,43.9749,M,0.6,0486*74
$GNGST,090433.60,0.063,0.040,0.008,4.114,0.040,0.008,0.047*44
$GPGGA,090433.70,5100.7521212,N,01347.4975897,E,4,14,0.84,122.7166,M,43.9749,M,0.7,0486*76
$GNGST,090433.70,0.071,0.047,0.009,6.575,0.047,0.010,0.052*4B
$GPGGA,090433.80,5100.7521190,N,01347.4975876,E,4,14,0.84,122.7068,M,43.9749,M,0.8,0486*7F
$GNGST,090433.80,0.071,0.047,0.009,6.574,0.047,0.010,0.052*45
$GPGGA,090433.90,5100.7521208,N,01347.4975876,E,4,14,0.84,122.7082,M,43.9749,M,0.9,0486*79
$GNGST,090433.90,0.071,0.047,0.009,6.572,0.047,0.010,0.052*42
$GPGGA,090434.00,5100.7521209,N,01347.4975870,E,4,14,0.84,122.7122,M,43.9749,M,1.0,0486*73
$GNGST,090434.00,0.071,0.047,0.009,6.571,0.047,0.010,0.052*4F
$GPGGA,090434.10,5100.7521223,N,01347.4975856,E,4,14,0.84,122.7189,M,43.9749,M,1.1,0486*7E
$GNGST,090434.10,0.071,0.047,0.009,6.570,0.047,0.010,0.052*4F
$GPGGA,090434.20,5100.7521195,N,01347.4975876,E,4,14,0.84,122.7138,M,43.9749,M,1.2,0486*78
$GNGST,090434.20,0.071,0.047,0.009,6.568,0.047,0.010,0.052*45
$GPGGA,090434.30,5100.7521198,N,01347.4975858,E,4,14,0.84,122.7142,M,43.9749,M,1.3,0486*74
$GNGST,090434.30,0.071,0.047,0.009,6.567,0.047,0.010,0.052*4B
$GPGGA,090434.40,5100.7521192,N,01347.4975880,E,4,14,0.84,122.7149,M,43.9749,M,1.4,0486*70
$GNGST,090434.40,0.071,0.047,0.009,6.566,0.047,0.010,0.052*4D
$GPGGA,090434.50,5100.7521210,N,01347.4975892,E,4,14,0.84,122.7141,M,43.9749,M,1.5,0486*72
$GNGST,090434.50,0.071,0.047,0.009,6.564,0.047,0.010,0.053*4F
$GPGGA,090434.60,5100.7521212,N,01347.4975884,E,4,14,0.84,122.7213,M,43.9749,M,0.6,0486*72
$GNGST,090434.60,0.071,0.047,0.009,6.576,0.047,0.010,0.052*4E
$GPGGA,090434.70,5100.7521211,N,01347.4975892,E,4,14,0.84,122.7185,M,43.9749,M,0.7,0486*7A
$GNGST,090434.70,0.074,0.048,0.010,4.057,0.048,0.010,0.055*41
$GPGGA,090434.80,5100.7521195,N,01347.4975872,E,4,14,0.84,122.7216,M,43.9749,M,0.8,0486*72
$GNGST,090434.80,0.074,0.048,0.010,4.056,0.048,0.010,0.056*4C
$GPGGA,090434.90,5100.7521219,N,01347.4975872,E,4,14,0.84,122.7215,M,43.9749,M,0.9,0486*76
$GNGST,090434.90,0.074,0.048,0.010,4.055,0.048,0.010,0.056*4E
$GPGGA,090435.00,5100.7521231,N,01347.4975869,E,4,14,0.84,122.7173,M,43.9749,M,1.0,0486*75
$GNGST,090435.00,0.074,0.048,0.010,4.053,0.048,0.010,0.056*40
$GPGGA,090435.10,5100.7521198,N,01347.4975907,E,4,14,0.84,122.7181,M,43.9749,M,1.1,0486*71
$GNGST,090435.10,0.074,0.048,0.010,4.052,0.048,0.010,0.056*40
$GPGGA,090435.20,5100.7521206,N,01347.4975902,E,4,14,0.84,122.7180,M,43.9749,M,1.2,0486*71
$GNGST,090435.20,0.074,0.048,0.010,4.051,0.048,0.010,0.056*40
$GPGGA,090435.30,5100.7521208,N,01347.4975902,E,4,14,0.84,122.7244,M,43.9749,M,1.3,0486*74
$GNGST,090435.30,0.074,0.048,0.010,4.050,0.048,0.010,0.056*40
$GPGGA,090435.40,5100.7521230,N,01347.4975875,E,4,14,0.84,122.7213,M,43.9749,M,1.4,0486*7C
$GNGST,090435.40,0.074,0.048,0.010,4.048,0.048,0.010,0.056*4E
$GPGGA,090435.50,5100.7521227,N,01347.4975864,E,4,14,0.84,122.7222,M,43.9749,M,1.5,0486*78
$GNGST,090435.50,0.074,0.048,0.010,4.047,0.048,0.010,0.056*40
$GPGGA,090435.60,5100.7521206,N,01347.4975869,E,4,14,0.84,122.7182,M,43.9749,M,0.6,0486*7E
$GNGST,090435.60,0.074,0.048,0.010,4.058,0.048,0.010,0.055*4E
$GPGGA,090435.70,5100.7521227,N,01347.4975887,E,4,14,0.84,122.7229,M,43.9749,M,0.7,0486*7F
$GNGST,090435.70,0.067,0.044,0.009,5.776,0.044,0.010,0.050*4A
$GPGGA,090435.80,5100.7521213,N,01347.4975886,E,4,14,0.84,122.7145,M,43.9749,M,0.8,0486*70
$GNGST,090435.80,0.067,0.044,0.009,5.775,0.044,0.010,0.050*46
$GPGGA,090435.90,5100.7521229,N,01347.4975899,E,4,14,0.84,122.7186,M,43.9749,M,0.9,0486*78
$GNGST,090435.90,0.067,0.044,0.009,5.773,0.044,0.010,0.050*41
$GPGGA,090436.00,5100.7521243,N,01347.4975893,E,4,14,0.84,122.7197,M,43.9749,M,1.0,0486*7C
$GNGST,090436.00,0.067,0.044,0.009,5.771,0.044,0.010,0.050*49
$GPGGA,090436.10,5100.7521211,N,01347.4975888,E,4,14,0.84,122.7178,M,43.9749,M,1.1,0486*70
$GNGST,090436.10,0.067,0.044,0.009,5.770,0.044,0.010,0.050*49
$GPGGA,090436.20,5100.7521249,N,01347.4975890,E,4,14,0.84,122.7226,M,43.9749,M,1.2,0486*7C
$GNGST,090436.20,0.067,0.044,0.009,5.768,0.044,0.010,0.050*43
$GPGGA,090436.30,5100.7521221,N,01347.4975894,E,4,14,0.84,122.7201,M,43.9749,M,1.3,0486*73
$GNGST,090436.30,0.067,0.044,0.009,5.767,0.044,0.010,0.050*4D
$GPGGA,090436.40,5100.7521229,N,01347.4975909,E,4,14,0.84,122.7253,M,43.9749,M,1.4,0486*79
$GNGST,090436.40,0.067,0.044,0.010,5.765,0.044,0.010,0.050*40
$GPGGA,090436.50,5100.7521235,N,01347.4975902,E,4,14,0.84,122.7205,M,43.9749,M,1.5,0486*7C
$GNGST,090436.50,0.067,0.044,0.010,5.764,0.044,0.010,0.050*40
$GPGGA,090436.60,5100.7521227,N,01347.4975905,E,4,14,0.84,122.7273,M,43.9749,M,0.6,0486*78
$GNGST,090436.60,0.067,0.044,0.009,5.778,0.044,0.010,0.050*46
$GPGGA,090436.70,5100.7521222,N,01347.4975913,E,4,14,0.84,122.7272,M,43.9749,M,0.7,0486*7B
$GNGST,090436.70,0.062,0.041,0.008,5.623,0.041,0.009,0.046*43
$GPGGA,090436.80,5100.7521201,N,01347.4975913,E,4,14,0.84,122.7231,M,43.9749,M,0.8,0486*7D
$GNGST,090436.80,0.062,0.041,0.008,5.621,0.041,0.009,0.046*4E
$GPGGA,090436.90,5100.7521212,N,01347.4975930,E,4,14,0.84,122.7175,M,43.9749,M,0.9,0486*7D
$GNGST,090436.90,0.062,0.041,0.008,5.620,0.041,0.009,0.046*4E
$GPGGA,090437.00,5100.7521206,N,01347.4975904,E,4,14,0.84,122.7194,M,43.9749,M,1.0,0486*70
$GNGST,090437.00,0.062,0.041,0.008,5.618,0.041,0.009,0.046*4D
$GPGGA,090437.10,5100.7521210,N,01347.4975927,E,4,14,0.84,122.7173,M,43.9749,M,1.1,0486*7F
$GNGST,090437.10,0.062,0.041,0.008,5.616,0.041,0.009,0.046*42
$GPGGA,090437.20,5100.7521207,N,01347.4975951,E,4,14,0.84,122.7224,M,43.9749,M,1.2,0486*79
$GNGST,090437.20,0.062,0.041,0.008,5.614,0.041,0.009,0.046*43
$GPGGA,090437.30,5100.7521203,N,01347.4975932,E,4,14,0.84,122.7206,M,43.9749,M,1.3,0486*78
$GNGST,090437.30,0.062,0.041,0.008,5.612,0.041,0.009,0.046*44
$GPGGA,090437.40,5100.7521198,N,01347.4975957,E,4,14,0.84,122.7202,M,43.9749,M,1.4,0486*7E
$GNGST,090437.40,0.062,0.041,0.008,5.611,0.041,0.009,0.046*40
$GPGGA,090437.50,5100.7521198,N,01347.4975950,E,4,14,0.84,122.7188,M,43.9749,M,1.5,0486*78
$GNGST,090437.50,0.062,0.041,0.008,5.609,0.041,0.009,0.046*48
$GPGGA,090437.60,5100.7521202,N,01347.4975930,E,4,14,0.84,122.7250,M,43.9749,M,0.6,0486*79
$GNGST,090437.60,0.062,0.041,0.008,5.625,0.041,0.009,0.046*45
$GPGGA,090437.70,5100.7521197,N,01347.4975936,E,4,14,0.84,122.7288,M,43.9749,M,0.7,0486*75
$GNGST,090437.70,0.064,0.041,0.009,3.713,0.041,0.009,0.048*4F
$GPGGA,090437.80,5100.7521206,N,01347.4975926,E,4,14,0.84,122.7251,M,43.9749,M,0.8,0486*7B
$GNGST,090437.80,0.064,0.041,0.009,3.711,0.041,0.009,0.048*42
$GPGGA,090437.90,5100.7521199,N,01347.4975935,E,4,14,0.84,122.7242,M,43.9749,M,0.9,0486*7E
$GNGST,090437.90,0.064,0.041,0.009,3.709,0.041,0.009,0.048*4A
$GPGGA,090438.00,5100.7521209,N,01347.4975938,E,4,14,0.84,122.7268,M,43.9749,M,1.0,0486*7F
$GNGST,090438.00,0.064,0.041,0.009,3.708,0.041,0.009,0.048*4D
$GPGGA,090438.10,5100.7521212,N,01347.4975956,E,4,14,0.84,122.7184,M,43.9749,M,1.1,0486*7C
$GNGST,090438.10,0.064,0.041,0.009,3.706,0.041,0.009,0.048*42
$GPGGA,090438.20,5100.7521226,N,01347.4975938,E,4,14,0.84,122.7217,M,43.9749,M,1.2,0486*7A
$GNGST,090438.20,0.064,0.041,0.009,3.704,0.041,0.009,0.048*43
$GPGGA,090438.30,5100.7521213,N,01347.4975952,E,4,14,0.84,122.7280,M,43.9749,M,1.3,0486*7E
$GNGST,090438.30,0.064,0.041,0.009,3.703,0.041,0.009,0.048*45
$GPGGA,090438.40,5100.7521194,N,01347.4975957,E,4,14,0.84,122.7249,M,43.9749,M,1.4,0486*72
$GNGST,090438.40,0.064,0.041,0.009,3.701,0.041,0.009,0.048*40
$GPGGA,090438.50,5100.7521209,N,01347.4975954,E,4,14,0.84,122.7204,M,43.9749,M,1.5,0486*7F
$GNGST,090438.50,0.064,0.041,0.009,3.699,0.041,0.009,0.048*41
$GPGGA,090438.60,5100.7521204,N,01347.4975934,E,4,14,0.84,122.7250,M,43.9749,M,0.6,0486*74
$GNGST,090438.60,0.064,0.041,0.008,3.715,0.041,0.009,0.048*46
$GPGGA,090438.70,5100.7521201,N,01347.4975943,E,4,14,0.84,122.7241,M,43.9749,M,0.7,0486*71
$GNGST,090438.70,0.061,0.040,0.007,4.265,0.040,0.008,0.046*47
$GPGGA,090438.80,5100.7521232,N,01347.4975956,E,4,14,0.84,122.7242,M,43.9749,M,0.8,0486*76
$GNGST,090438.80,0.061,0.040,0.007,4.263,0.040,0.008,0.046*4E
$GPGGA,090438.90,5100.7521209,N,01347.4975954,E,4,14,0.84,122.7221,M,43.9749,M,0.9,0486*79
$GNGST,090438.90,0.061,0.040,0.007,4.261,0.040,0.008,0.046*4D
$GPGGA,090439.00,5100.7521189,N,01347.4975976,E,4,14,0.84,122.7241,M,43.9749,M,1.0,0486*74
$GNGST,090439.00,0.061,0.040,0.008,4.259,0.040,0.008,0.046*41
$GPGGA,090439.10,5100.7521204,N,01347.4975938,E,4,14,0.84,122.7215,M,43.9749,M,1.1,0486*79
$GNGST,090439.10,0.061,0.040,0.008,4.257,0.040,0.008,0.046*4E
$GPGGA,090439.20,5100.7521223,N,01347.4975929,E,4,14,0.84,122.7201,M,43.9749,M,1.2,0486*79
$GNGST,090439.20,0.061,0.040,0.008,4.255,0.040,0.008,0.046*4F
$GPGGA,090439.30,5100.7521224,N,01347.4975937,E,4,14,0.84,122.7224,M,43.9749,M,1.3,0486*76
$GNGST,090439.30,0.061,0.040,0.008,4.253,0.040,0.008,0.046*48
$GPGGA,090439.40,5100.7521219,N,01347.4975965,E,4,14,0.84,122.7219,M,43.9749,M,1.4,0486*71
$GNGST,090439.40,0.061,0.040,0.008,4.252,0.040,0.008,0.046*4E
$GPGGA,090439.50,5100.7521209,N,01347.4975964,E,4,14,0.84,122.7226,M,43.9749,M,1.5,0486*7D
$GNGST,090439.50,0.061,0.040,0.008,4.250,0.040,0.008,0.046*4D
$GPGGA,090439.60,5100.7521216,N,01347.4975967,E,4,14,0.84,122.7210,M,43.9749,M,0.6,0486*74
$GNGST,090439.60,0.061,0.040,0.007,4.266,0.040,0.008,0.046*44
$GPGGA,090439.70,5100.7521211,N,01347.4975936,E,4,14,0.84,122.7212,M,43.9749,M,0.7,0486*75
$GNGST,090439.70,0.070,0.045,0.009,3.725,0.045,0.010,0.053*43
$GPGGA,090439.80,5100.7521215,N,01347.4975949,E,4,14,0.84,122.7220,M,43.9749,M,0.8,0486*78
$GNGST,090439.80,0.070,0.045,0.009,3.724,0.045,0.010,0.053*4D
$GPGGA,090439.90,5100.7521230,N,01347.4975949,E,4,14,0.84,122.7307,M,43.9749,M,0.9,0486*7B
$GNGST,090439.90,0.070,0.045,0.009,3.722,0.045,0.010,0.053*4A
$GPGGA,090440.00,5100.7521210,N,01347.4975958,E,4,14,0.84,122.7216,M,43.9749,M,1.0,0486*77
$GNGST,090440.00,0.070,0.045,0.009,3.721,0.045,0.010,0.053*4E
$GPGGA,090440.10,5100.7521202,N,01347.4975957,E,4,14,0.84,122.7216,M,43.9749,M,1.1,0486*7B
$GNGST,090440.10,0.070,0.045,0.009,3.719,0.045,0.010,0.053*44
$GPGGA,090440.20,5100.7521200,N,01347.4975966,E,4,14,0.84,122.7211,M,43.9749,M,1.2,0486*7C
$GNGST,090440.20,0.070,0.045,0.009,3.718,0.045,0.010,0.053*46
$GPGGA,090440.30,5100.7521198,N,01347.4975952,E,4,14,0.84,122.7223,M,43.9749,M,1.3,0486*78
$GNGST,090440.30,0.070,0.045,0.009,3.717,0.045,0.010,0.053*48
$GPGGA,090440.40,5100.7521193,N,01347.4975964,E,4,14,0.84,122.7201,M,43.9749,M,1.4,0486*76
$GNGST,090440.40,0.070,0.045,0.009,3.715,0.045,0.010,0.053*4D
$GPGGA,090440.50,5100.7521178,N,01347.4975968,E,4,14,0.84,122.7225,M,43.9749,M,1.5,0486*79
$GNGST,090440.50,0.070,0.045,0.009,3.714,0.045,0.010,0.053*4D
$GPGGA,090440.60,5100.7521189,N,01347.4975951,E,4,14,0.84,122.7225,M,43.9749,M,0.6,0486*7C
$GNGST,090440.60,0.072,0.047,0.008,5.027,0.047,0.009,0.054*43
$GPGGA,090440.70,5100.7521202,N,01347.4975958,E,4,14,0.84,122.7174,M,43.9749,M,0.7,0486*72
$GNGST,090440.70,0.072,0.047,0.008,5.026,0.047,0.009,0.054*43
$GPGGA,090440.80,5100.7521200,N,01347.4975957,E,4,14,0.84,122.7207,M,43.9749,M,0.8,0486*78
$GNGST,090440.80,0.072,0.047,0.008,5.025,0.047,0.009,0.054*4F
$GPGGA,090440.90,5100.7521202,N,01347.4975928,E,4,14,0.84,122.7310,M,43.9749,M,0.9,0486*75
$GNGST,090440.90,0.072,0.047,0.008,5.023,0.047,0.009,0.054*48
$GPGGA,090441.00,5100.7521212,N,01347.4975937,E,4,14,0.84,122.7221,M,43.9749,M,1.0,0486*79
$GNGST,090441.00,0.072,0.047,0.008,5.022,0.047,0.009,0.054*41
$GPGGA,090441.10,5100.7521204,N,01347.4975956,E,4,14,0.84,122.7228,M,43.9749,M,1.1,0486*70
$GNGST,090441.10,0.072,0.047,0.008,5.021,0.047,0.009,0.054*43
$GPGGA,090441.20,5100.7521187,N,01347.4975958,E,4,14,0.84,122.7177,M,43.9749,M,1.2,0486*7F
$GNGST,090441.20,0.072,0.047,0.008,5.019,0.047,0.009,0.054*4B
$GPGGA,090441.30,5100.7521204,N,01347.4975964,E,4,14,0.84,122.7201,M,43.9749,M,1.3,0486*7A
$GNGST,090441.30,0.072,0.047,0.008,5.018,0.047,0.009,0.054*4B
$GPGGA,090441.40,5100.7521194,N,01347.4975950,E,4,14,0.84,122.7224,M,43.9749,M,1.4,0486*70
$GNGST,090441.40,0.072,0.047,0.008,5.017,0.047,0.009,0.054*43
$GPGGA,090441.50,5100.7521217,N,01347.4975946,E,4,14,0.84,122.7218,M,43.9749,M,1.5,0486*70
$GNGST,090441.50,0.072,0.047,0.008,5.015,0.047,0.009,0.054*40
$GPGGA,090441.60,5100.7521213,N,01347.4975919,E,4,14,0.84,122.7173,M,43.9749,M,0.6,0486*71
$GNGST,090441.60,0.072,0.047,0.008,5.027,0.047,0.009,0.054*42
$GPGGA,090441.70,5100.7521206,N,01347.4975927,E,4,14,0.84,122.7159,M,43.9749,M,0.7,0486*70
$GNGST,090441.70,0.067,0.044,0.008,6.009,0.044,0.009,0.050*4C
$GPGGA,090441.80,5100.7521219,N,01347.4975912,E,4,14,0.84,122.7266,M,43.9749,M,0.8,0486*77
$GNGST,090441.80,0.067,0.044,0.008,6.008,0.044,0.009,0.050*42
$GPGGA,090441.90,5100.7521211,N,01347.4975941,E,4,14,0.84,122.7225,M,43.9749,M,0.9,0486*7E
$GNGST,090441.90,0.067,0.044,0.008,6.006,0.044,0.009,0.050*4D
$GPGGA,090442.00,5100.7521195,N,01347.4975916,E,4,14,0.84,122.7189,M,43.9749,M,1.0,0486*74
$GNGST,090442.00,0.067,0.044,0.008,6.005,0.044,0.009,0.050*44
$GPGGA,090442.10,5100.7521189,N,01347.4975930,E,4,14,0.84,122.7197,M,43.9749,M,1.1,0486*72
$GNGST,090442.10,0.067,0.044,0.008,6.003,0.044,0.009,0.050*43
$GPGGA,090442.20,5100.7521213,N,01347.4975931,E,4,14,0.84,122.7190,M,43.9749,M,1.2,0486*74
$GNGST,090442.20,0.067,0.044,0.008,6.002,0.044,0.009,0.050*41
$GPGGA,090442.30,5100.7521209,N,01347.4975962,E,4,14,0.84,122.7208,M,43.9749,M,1.3,0486*7B
$GNGST,090442.30,0.067,0.044,0.008,6.000,0.044,0.009,0.050*42
$GPGGA,090442.40,5100.7521187,N,01347.4975940,E,4,14,0.84,122.7213,M,43.9749,M,1.4,0486*74
$GNGST,090442.40,0.067,0.044,0.008,5.999,0.044,0.009,0.050*4F
$GPGGA,090442.50,5100.7521198,N,01347.4975936,E,4,14,0.84,122.7272,M,43.9749,M,1.5,0486*7C
$GNGST,090442.50,0.067,0.044,0.008,5.997,0.044,0.009,0.050*40
$GPGGA,090442.60,5100.7521219,N,01347.4975914,E,4,14,0.84,122.7270,M,43.9749,M,0.6,0486*75
$GNGST,090442.60,0.067,0.044,0.008,6.011,0.044,0.009,0.050*47
$GPGGA,090442.70,5100.7521232,N,01347.4975909,E,4,14,0.84,122.7265,M,43.9749,M,0.7,0486*74
$GNGST,090442.70,0.073,0.048,0.009,5.011,0.048,0.009,0.055*44
$GPGGA,090442.80,5100.7521234,N,01347.4975907,E,4,14,0.84,122.7204,M,43.9749,M,0.8,0486*7B
$GNGST,090442.80,0.073,0.048,0.009,5.010,0.048,0.009,0.055*4A
$GPGGA,090442.90,5100.7521220,N,01347.4975903,E,4,14,0.84,122.7231,M,43.9749,M,0.9,0486*7C
$GNGST,090442.90,0.073,0.048,0.009,5.008,0.048,0.009,0.055*42
$GPGGA,090443.00,5100.7521250,N,01347.4975890,E,4,14,0.84,122.7155,M,43.9749,M,1.0,0486*71
$GNGST,090443.00,0.073,0.048,0.009,5.007,0.048,0.010,0.055*4D
$GPGGA,090443.10,5100.7521226,N,01347.4975892,E,4,14,0.84,122.7126,M,43.9749,M,1.1,0486*76
$GNGST,090443.10,0.073,0.048,0.009,5.006,0.048,0.010,0.055*4D
$GPGGA,090443.20,5100.7521214,N,01347.4975882,E,4,14,0.84,122.7130,M,43.9749,M,1.2,0486*71
$GNGST,090443.20,0.073,0.048,0.009,5.004,0.048,0.010,0.055*4C
$GPGGA,090443.30,5100.7521203,N,01347.4975902,E,4,14,0.84,122.7168,M,43.9749,M,1.3,0486*73
$GNGST,090443.30,0.073,0.048,0.009,5.003,0.048,0.010,0.055*4A
$GPGGA,090443.40,5100.7521212,N,01347.4975887,E,4,14,0.84,122.7234,M,43.9749,M,1.4,0486*75
$GNGST,090443.40,0.073,0.048,0.009,5.002,0.048,0.010,0.055*4C
$GPGGA,090443.50,5100.7521225,N,01347.4975900,E,4,14,0.84,122.7184,M,43.9749,M,1.5,0486*77
$GNGST,090443.50,0.073,0.048,0.009,5.001,0.048,0.010,0.055*4E
$GPGGA,090443.60,5100.7521224,N,01347.4975896,E,4,14,0.84,122.7206,M,43.9749,M,1.6,0486*71
$GNGST,090443.60,0.073,0.048,0.009,4.999,0.048,0.010,0.055*44
$GPGGA,090443.70,5100.7521218,N,01347.4975900,E,4,14,0.84,122.7282,M,43.9749,M,1.7,0486*7C
$GNGST,090443.70,0.073,0.048,0.009,4.998,0.048,0.010,0.055*44
$GPGGA,090443.80,5100.7521236,N,01347.4975911,E,4,14,0.84,122.7268,M,43.9749,M,1.8,0486*74
$GNGST,090443.80,0.073,0.048,0.009,4.997,0.048,0.010,0.055*44
$GPGGA,090443.90,5100.7521242,N,01347.4975899,E,4,14,0.84,122.7327,M,43.9749,M,1.9,0486*7C
$GNGST,090443.90,0.073,0.048,0.009,4.996,0.048,0.010,0.055*44
$GPGGA,090444.00,5100.7521239,N,01347.4975890,E,4,14,0.84,122.7308,M,43.9749,M,2.0,0486*70
$GNGST,090444.00,0.073,0.048,0.009,4.994,0.048,0.010,0.055*48
$GPGGA,090444.10,5100.7521216,N,01347.4975918,E,4,14,0.84,122.7298,M,43.9749,M,2.1,0486*74
$GNGST,090444.10,0.073,0.048,0.009,4.993,0.048,0.010,0.055*4E
$GPGGA,090444.20,5100.7521220,N,01347.4975950,E,4,14,0.84,122.7248,M,43.9749,M,2.2,0486*70
$GNGST,090444.20,0.074,0.048,0.009,4.992,0.048,0.010,0.055*4B
$GPGGA,090444.30,5100.7521217,N,01347.4975899,E,4,14,0.84,122.7211,M,43.9749,M,2.3,0486*7C
$GNGST,090444.30,0.074,0.048,0.009,4.990,0.048,0.010,0.055*48
$GPGGA,090444.40,5100.7521223,N,01347.4975939,E,4,14,0.84,122.7227,M,43.9749,M,2.4,0486*75
$GNGST,090444.40,0.074,0.048,0.009,4.989,0.048,0.010,0.055*47
$GPGGA,090444.50,5100.7521209,N,01347.4975906,E,4,14,0.84,122.7201,M,43.9749,M,2.5,0486*75
$GNGST,090444.50,0.074,0.048,0.009,4.988,0.048,0.010,0.055*47
$GPGGA,090444.60,5100.7521239,N,01347.4975907,E,4,14,0.84,122.7195,M,43.9749,M,2.6,0486*79
$GNGST,090444.60,0.074,0.048,0.009,4.987,0.048,0.010,0.055*4B
$GPGGA,090444.70,5100.7521245,N,01347.4975915,E,4,14,0.84,122.7281,M,43.9749,M,2.7,0486*77
$GNGST,090444.70,0.074,0.048,0.009,4.985,0.048,0.010,0.055*48
$GPGGA,090444.80,5100.7521244,N,01347.4975893,E,4,14,0.84,122.7187,M,43.9749,M,2.8,0486*7C
$GNGST,090444.80,0.074,0.048,0.009,4.984,0.048,0.010,0.055*46
$GPGGA,090444.90,5100.7521232,N,01347.4975896,E,4,14,0.84,122.7175,M,43.9749,M,2.9,0486*75
$GNGST,090444.90,0.074,0.048,0.009,4.983,0.048,0.010,0.055*40
$GPGGA,090445.00,5100.7521222,N,01347.4975923,E,4,14,0.84,122.7210,M,43.9749,M,3.0,0486*7B
$GNGST,090445.00,0.074,0.048,0.009,4.981,0.048,0.010,0.055*4A
$GPGGA,090445.10,5100.7521221,N,01347.4975930,E,4,14,0.84,122.7262,M,43.9749,M,3.1,0486*7F
$GNGST,090445.10,0.074,0.048,0.009,4.980,0.048,0.010,0.055*4A
$GPGGA,090445.20,5100.7521216,N,01347.4975926,E,4,14,0.84,122.7215,M,43.9749,M,3.2,0486*7C
$GNGST,090445.20,0.074,0.048,0.009,4.979,0.048,0.010,0.055*4F
$GPGGA,090445.30,5100.7521205,N,01347.4975913,E,4,14,0.84,122.7226,M,43.9749,M,3.3,0486*78
$GNGST,090445.30,0.074,0.048,0.009,4.978,0.048,0.010,0.055*4F
$GPGGA,090445.40,5100.7521203,N,01347.4975935,E,4,14,0.84,122.7229,M,43.9749,M,3.4,0486*75
$GNGST,090445.40,0.074,0.048,0.009,4.976,0.048,0.010,0.055*46
$GPGGA,090445.50,5100.7521215,N,01347.4975944,E,4,14,0.84,122.7215,M,43.9749,M,3.5,0486*7B
$GNGST,090445.50,0.074,0.048,0.009,4.975,0.048,0.010,0.055*44
$GPGGA,090445.60,5100.7521224,N,01347.4975939,E,4,14,0.84,122.7163,M,43.9749,M,2.6,0486*70
$GNGST,090445.60,0.074,0.048,0.009,4.987,0.048,0.010,0.055*4A
$GPGGA,090445.70,5100.7521228,N,01347.4975916,E,4,14,0.84,122.7148,M,43.9749,M,2.7,0486*78
$GNGST,090445.70,0.077,0.051,0.012,7.213,0.051,0.013,0.056*47
$GPGGA,090445.80,5100.7521218,N,01347.4975945,E,4,14,0.84,122.7220,M,43.9749,M,2.8,0486*70
$GNGST,090445.80,0.077,0.051,0.012,7.212,0.051,0.013,0.056*49
$GPGGA,090445.90,5100.7521250,N,01347.4975933,E,4,14,0.84,122.7231,M,43.9749,M,2.9,0486*7D
$GNGST,090445.90,0.077,0.051,0.012,7.211,0.051,0.013,0.056*4B
$GPGGA,090446.00,5100.7521235,N,01347.4975932,E,4,14,0.84,122.7196,M,43.9749,M,3.0,0486*73
$GNGST,090446.00,0.077,0.051,0.012,7.210,0.051,0.013,0.056*40
$GPGGA,090446.10,5100.7521242,N,01347.4975927,E,4,14,0.84,122.7239,M,43.9749,M,3.1,0486*71
$GNGST,090446.10,0.077,0.051,0.012,7.209,0.051,0.013,0.056*49
$GPGGA,090446.20,5100.7521238,N,01347.4975902,E,4,14,0.84,122.7248,M,43.9749,M,3.2,0486*7D
$GNGST,090446.20,0.077,0.051,0.012,7.207,0.051,0.013,0.056*44
$GPGGA,090446.30,5100.7521246,N,01347.4975921,E,4,14,0.84,122.7220,M,43.9749,M,3.3,0486*7B
$GNGST,090446.30,0.077,0.051,0.012,7.206,0.051,0.013,0.056*44
$GPGGA,090446.40,5100.7521246,N,01347.4975924,E,4,14,0.84,122.7237,M,43.9749,M,3.4,0486*78
$GNGST,090446.40,0.077,0.051,0.012,7.205,0.051,0.013,0.056*40
$GPGGA,090446.50,5100.7521240,N,01347.4975926,E,4,14,0.84,122.7220,M,43.9749,M,3.5,0486*7A
$GNGST,090446.50,0.077,0.051,0.012,7.204,0.051,0.013,0.056*40
$GPGGA,090446.60,5100.7521254,N,01347.4975910,E,4,14,0.84,122.7183,M,43.9749,M,3.6,0486*70
$GNGST,090446.60,0.077,0.051,0.012,7.203,0.051,0.013,0.056*44
$GPGGA,090446.70,5100.7521260,N,01347.4975939,E,4,14,0.84,122.7217,M,43.9749,M,3.7,0486*72
$GNGST,090446.70,0.077,0.051,0.012,7.201,0.051,0.013,0.056*47
$GPGGA,090446.80,5100.7521261,N,01347.4975925,E,4,14,0.84,122.7232,M,43.9749,M,3.8,0486*79
$GNGST,090446.80,0.077,0.051,0.012,7.200,0.051,0.013,0.056*49
$GPGGA,090446.90,5100.7521239,N,01347.4975889,E,4,14,0.84,122.7235,M,43.9749,M,3.9,0486*74
$GNGST,090446.90,0.077,0.051,0.012,7.199,0.051,0.013,0.056*4B
$GPGGA,090447.00,5100.7521223,N,01347.4975946,E,4,14,0.84,122.7180,M,43.9749,M,4.0,0486*76
$GNGST,090447.00,0.077,0.051,0.012,7.198,0.051,0.014,0.056*45
$GPGGA,090447.10,5100.7521247,N,01347.4975884,E,4,14,0.84,122.7219,M,43.9749,M,4.1,0486*78
$GNGST,090447.10,0.077,0.051,0.012,7.197,0.051,0.014,0.056*4B
$GPGGA,090447.20,5100.7521234,N,01347.4975882,E,4,14,0.84,122.7197,M,43.9749,M,4.2,0486*7F
$GNGST,090447.20,0.077,0.051,0.012,7.196,0.051,0.014,0.056*49
$GPGGA,090447.30,5100.7521246,N,01347.4975922,E,4,14,0.84,122.7198,M,43.9749,M,4.3,0486*7E
$GNGST,090447.30,0.077,0.051,0.012,7.194,0.051,0.014,0.056*4A
$GPGGA,090447.40,5100.7521258,N,01347.4975929,E,4,14,0.84,122.7276,M,43.9749,M,4.4,0486*79
$GNGST,090447.40,0.077,0.051,0.012,7.193,0.051,0.014,0.056*4A
$GPGGA,090447.50,5100.7521253,N,01347.4975942,E,4,14,0.84,122.7255,M,43.9749,M,4.5,0486*7E
$GNGST,090447.50,0.077,0.051,0.012,7.192,0.051,0.014,0.056*4A
$GPGGA,090447.60,5100.7521272,N,01347.4975920,E,4,14,0.84,122.7171,M,43.9749,M,3.6,0486*7B
$GNGST,090447.60,0.077,0.051,0.012,7.203,0.051,0.013,0.056*45
$GPGGA,090447.70,5100.7521257,N,01347.4975912,E,4,14,0.84,122.7126,M,43.9749,M,3.7,0486*7F
$GNGST,090447.70,0.057,0.038,0.008,6.996,0.038,0.009,0.042*45
$GPGGA,090447.80,5100.7521269,N,01347.4975922,E,4,14,0.84,122.7139,M,43.9749,M,3.8,0486*7F
$GNGST,090447.80,0.057,0.038,0.008,6.994,0.038,0.009,0.042*48
$GPGGA,090447.90,5100.7521289,N,01347.4975941,E,4,14,0.84,122.7137,M,43.9749,M,2.9,0486*7B
$GNGST,090447.90,0.057,0.038,0.008,7.013,0.038,0.009,0.042*4E
$GPGGA,090448.00,5100.7521295,N,01347.4975932,E,4,14,0.84,122.7114,M,43.9749,M,3.0,0486*7D
$GNGST,090448.00,0.070,0.046,0.009,6.829,0.046,0.010,0.051*46
$GPGGA,090448.10,5100.7521266,N,01347.4975888,E,4,14,0.84,122.7088,M,43.9749,M,2.1,0486*74
$GNGST,090448.10,0.070,0.046,0.009,6.842,0.046,0.010,0.051*4A
$GPGGA,090448.20,5100.7521266,N,01347.4975905,E,4,14,0.84,122.7125,M,43.9749,M,2.2,0486*76
$GNGST,090448.20,0.076,0.052,0.010,7.787,0.051,0.012,0.056*46
$GPGGA,090448.30,5100.7521268,N,01347.4975919,E,4,14,0.84,122.7129,M,43.9749,M,1.3,0486*7A
$GNGST,090448.30,0.076,0.052,0.009,7.797,0.051,0.012,0.056*4E
$GPGGA,090448.40,5100.7521270,N,01347.4975928,E,4,14,0.84,122.7116,M,43.9749,M,1.4,0486*7D
$GNGST,090448.40,0.077,0.051,0.010,6.534,0.051,0.011,0.057*4B
$GPGGA,090448.50,5100.7521266,N,01347.4975908,E,4,14,0.84,122.7109,M,43.9749,M,1.5,0486*76
$GNGST,090448.50,0.077,0.051,0.010,6.533,0.051,0.011,0.057*4D
$GPGGA,090448.60,5100.7521274,N,01347.4975942,E,4,14,0.84,122.7154,M,43.9749,M,0.6,0486*72
$GNGST,090448.60,0.077,0.051,0.010,6.543,0.051,0.011,0.057*49
$GPGGA,090448.70,5100.7521266,N,01347.4975967,E,4,14,0.84,122.7183,M,43.9749,M,0.7,0486*7C
$GNGST,090448.70,0.074,0.051,0.010,8.555,0.050,0.012,0.054*43
$GPGGA,090448.80,5100.7521255,N,01347.4975986,E,4,14,0.84,122.7185,M,43.9749,M,0.8,0486*75
$GNGST,090448.80,0.074,0.051,0.010,8.553,0.050,0.012,0.054*4A
$GPGGA,090448.90,5100.7521260,N,01347.4975976,E,4,14,0.84,122.7150,M,43.9749,M,0.9,0486*74
$GNGST,090448.90,0.075,0.051,0.010,8.552,0.050,0.012,0.054*4B
$GPGGA,090449.00,5100.7521264,N,01347.4975968,E,4,14,0.84,122.7189,M,43.9749,M,1.0,0486*7B
$GNGST,090449.00,0.075,0.051,0.010,8.551,0.050,0.012,0.054*40
$GPGGA,090449.10,5100.7521276,N,01347.4975970,E,4,14,0.84,122.7161,M,43.9749,M,1.1,0486*77
$GNGST,090449.10,0.075,0.051,0.010,8.550,0.050,0.012,0.054*40
$GPGGA,090449.20,5100.7521260,N,01347.4975933,E,4,14,0.84,122.7134,M,43.9749,M,1.2,0486*77
$GNGST,090449.20,0.075,0.051,0.010,8.549,0.050,0.012,0.054*4B
$GPGGA,090449.30,5100.7521258,N,01347.4975943,E,4,14,0.84,122.7120,M,43.9749,M,1.3,0486*7E
$GNGST,090449.30,0.075,0.051,0.010,8.547,0.050,0.012,0.054*44
$GPGGA,090449.40,5100.7521266,N,01347.4975936,E,4,14,0.84,122.7208,M,43.9749,M,1.4,0486*78
$GNGST,090449.40,0.075,0.051,0.010,8.546,0.050,0.012,0.054*42
$GPGGA,090449.50,5100.7521267,N,01347.4975935,E,4,14,0.84,122.7152,M,43.9749,M,1.5,0486*76
$GNGST,090449.50,0.075,0.051,0.010,8.545,0.050,0.012,0.054*40
$GPGGA,090449.60,5100.7521248,N,01347.4975939,E,4,14,0.84,122.7189,M,43.9749,M,0.6,0486*70
$GNGST,090449.60,0.061,0.040,0.011,6.071,0.040,0.012,0.045*4A
$GPGGA,090449.70,5100.7521248,N,01347.4975938,E,4,14,0.84,122.7212,M,43.9749,M,0.7,0486*70
$GNGST,090449.70,0.061,0.040,0.011,6.069,0.040,0.012,0.045*42
$GPGGA,090449.80,5100.7521259,N,01347.4975951,E,4,14,0.84,122.7245,M,43.9749,M,0.8,0486*7D
$GNGST,090449.80,0.061,0.040,0.011,6.067,0.040,0.012,0.045*43
$GPGGA,090449.90,5100.7521258,N,01347.4975966,E,4,14,0.84,122.7241,M,43.9749,M,0.9,0486*7C
$GNGST,090449.90,0.061,0.040,0.011,6.065,0.040,0.012,0.045*40
$GPGGA,090450.00,5100.7521263,N,01347.4975963,E,4,14,0.84,122.7240,M,43.9749,M,1.0,0486*79
$GNGST,090450.00,0.061,0.040,0.011,6.063,0.040,0.012,0.045*47
$GPGGA,090450.10,5100.7521255,N,01347.4975987,E,4,14,0.84,122.7303,M,43.9749,M,1.1,0486*70
$GNGST,090450.10,0.061,0.040,0.011,6.061,0.040,0.012,0.045*44
$GPGGA,090450.20,5100.7521262,N,01347.4976008,E,4,14,0.84,122.7214,M,43.9749,M,1.2,0486*7E
$GNGST,090450.20,0.061,0.040,0.011,6.059,0.040,0.012,0.045*4C
$GPGGA,090450.30,5100.7521265,N,01347.4975981,E,4,14,0.84,122.7226,M,43.9749,M,1.3,0486*73
$GNGST,090450.30,0.061,0.040,0.011,6.057,0.040,0.012,0.045*43
$GPGGA,090450.40,5100.7521262,N,01347.4975991,E,4,14,0.84,122.7246,M,43.9749,M,1.4,0486*73
$GNGST,090450.40,0.061,0.040,0.011,6.055,0.040,0.012,0.045*46
$GPGGA,090450.50,5100.7521265,N,01347.4975962,E,4,14,0.84,122.7197,M,43.9749,M,1.5,0486*77
$GNGST,090450.50,0.061,0.040,0.011,6.053,0.040,0.012,0.045*41
$GPGGA,090450.60,5100.7521263,N,01347.4975968,E,4,14,0.84,122.7194,M,43.9749,M,0.6,0486*79
$GNGST,090450.60,0.061,0.040,0.011,6.071,0.040,0.012,0.045*42
$GPGGA,090450.70,5100.7521249,N,01347.4975982,E,4,14,0.84,122.7338,M,43.9749,M,0.7,0486*71
$GNGST,090450.70,0.058,0.039,0.009,6.719,0.038,0.010,0.043*4C
$GPGGA,090450.80,5100.7521249,N,01347.4975953,E,4,14,0.84,122.7213,M,43.9749,M,0.8,0486*75
$GNGST,090450.80,0.058,0.039,0.009,6.717,0.038,0.010,0.043*4D
$GPGGA,090450.90,5100.7521264,N,01347.4975934,E,4,14,0.84,122.7195,M,43.9749,M,0.9,0486*76
$GNGST,090450.90,0.058,0.039,0.009,6.715,0.038,0.010,0.043*4E
$GPGGA,090451.00,5100.7521246,N,01347.4975969,E,4,14,0.84,122.7187,M,43.9749,M,1.0,0486*7D
$GNGST,090451.00,0.058,0.039,0.009,6.713,0.038,0.010,0.043*40
$GPGGA,090451.10,5100.7521278,N,01347.4975962,E,4,14,0.84,122.7205,M,43.9749,M,1.1,0486*72
$GNGST,090451.10,0.058,0.039,0.009,6.711,0.038,0.010,0.043*43
$GPGGA,090451.20,5100.7521242,N,01347.4975962,E,4,14,0.84,122.7196,M,43.9749,M,1.2,0486*72
$GNGST,090451.20,0.058,0.039,0.009,6.709,0.038,0.010,0.043*49
$GPGGA,090451.30,5100.7521252,N,01347.4975972,E,4,14,0.84,122.7213,M,43.9749,M,1.3,0486*7C
$GNGST,090451.30,0.059,0.039,0.009,6.707,0.038,0.010,0.043*47
$GPGGA,090451.40,5100.7521249,N,01347.4975982,E,4,14,0.84,122.7174,M,43.9749,M,1.4,0486*7B
$GNGST,090451.40,0.059,0.039,0.009,6.705,0.038,0.010,0.043*42
$GPGGA,090451.50,5100.7521253,N,01347.4975970,E,4,14,0.84,122.7259,M,43.9749,M,1.5,0486*71
$GNGST,090451.50,0.059,0.039,0.009,6.702,0.038,0.010,0.043*44
$GPGGA,090451.60,5100.7521242,N,01347.4975973,E,4,14,0.84,122.7290,M,43.9749,M,1.6,0486*77
$GNGST,090451.60,0.059,0.039,0.009,6.700,0.038,0.010,0.043*45
$GPGGA,090451.70,5100.7521250,N,01347.4975936,E,4,14,0.84,122.7261,M,43.9749,M,1.7,0486*7B
$GNGST,090451.70,0.059,0.039,0.009,6.698,0.038,0.010,0.043*44
$GPGGA,090451.80,5100.7521260,N,01347.4975964,E,4,14,0.84,122.7199,M,43.9749,M,1.8,0486*7B
$GNGST,090451.80,0.059,0.039,0.009,6.696,0.038,0.010,0.043*45
$GPGGA,090451.90,5100.7521259,N,01347.4975958,E,4,14,0.84,122.7228,M,43.9749,M,1.9,0486*77
$GNGST,090451.90,0.059,0.039,0.009,6.694,0.038,0.010,0.043*46
$GPGGA,090452.00,5100.7521251,N,01347.4975972,E,4,14,0.84,122.7216,M,43.9749,M,2.0,0486*7A
$GNGST,090452.00,0.059,0.039,0.009,6.692,0.038,0.010,0.043*4A
$GPGGA,090452.10,5100.7521229,N,01347.4975989,E,4,14,0.84,122.7304,M,43.9749,M,2.1,0486*73
$GNGST,090452.10,0.059,0.039,0.009,6.690,0.038,0.010,0.043*49
$GPGGA,090452.20,5100.7521253,N,01347.4975962,E,4,14,0.84,122.7295,M,43.9749,M,1.2,0486*71
$GNGST,090452.20,0.058,0.039,0.009,6.709,0.038,0.010,0.043*4A
$GPGGA,090452.30,5100.7521174,N,01347.4976065,E,4,15,0.80,122.7612,M,43.9749,M,1.3,0486*74
$GNGST,090452.30,0.056,0.035,0.015,2.774,0.035,0.015,0.041*40
$GPGGA,090452.40,5100.7521183,N,01347.4976059,E,4,15,0.80,122.7547,M,43.9749,M,1.4,0486*70
$GNGST,090452.40,0.057,0.035,0.015,2.772,0.035,0.015,0.041*40
$GPGGA,090452.50,5100.7521158,N,01347.4976073,E,4,15,0.80,122.7549,M,43.9749,M,1.5,0486*70
$GNGST,090452.50,0.057,0.035,0.015,2.770,0.035,0.015,0.041*43
$GPGGA,090452.60,5100.7521153,N,01347.4976057,E,4,15,0.80,122.7532,M,43.9749,M,0.6,0486*70
$GNGST,090452.60,0.056,0.035,0.015,2.786,0.035,0.015,0.041*48
$GPGGA,090452.70,5100.7521138,N,01347.4976071,E,4,15,0.80,122.7562,M,43.9749,M,0.7,0486*7C
$GNGST,090452.70,0.058,0.035,0.017,1.805,0.035,0.017,0.042*43
$GPGGA,090452.80,5100.7521154,N,01347.4976053,E,4,15,0.80,122.7527,M,43.9749,M,0.8,0486*77
$GNGST,090452.80,0.058,0.035,0.017,1.803,0.035,0.017,0.042*4A
$GPGGA,090452.90,5100.7521165,N,01347.4976045,E,4,15,0.80,122.7564,M,43.9749,M,0.9,0486*75
$GNGST,090452.90,0.058,0.035,0.017,1.801,0.035,0.017,0.042*49
$GPGGA,090453.00,5100.7521170,N,01347.4976056,E,4,15,0.80,122.7573,M,43.9749,M,1.0,0486*75
$GNGST,090453.00,0.058,0.035,0.017,1.800,0.035,0.017,0.042*40
$GPGGA,090453.10,5100.7521171,N,01347.4976050,E,4,15,0.80,122.7547,M,43.9749,M,1.1,0486*75
$GNGST,090453.10,0.058,0.035,0.017,1.798,0.035,0.017,0.042*4F
$GPGGA,090453.20,5100.7521163,N,01347.4976095,E,4,15,0.80,122.7519,M,43.9749,M,1.2,0486*74
$GNGST,090453.20,0.058,0.036,0.017,1.796,0.035,0.017,0.042*41
$GPGGA,090453.30,5100.7521166,N,01347.4976067,E,4,15,0.80,122.7548,M,43.9749,M,1.3,0486*78
$GNGST,090453.30,0.058,0.036,0.017,1.794,0.035,0.017,0.042*42
$GPGGA,090453.40,5100.7521174,N,01347.4976047,E,4,15,0.80,122.7535,M,43.9749,M,1.4,0486*73
$GNGST,090453.40,0.058,0.036,0.017,1.792,0.035,0.017,0.042*43
$GPGGA,090453.50,5100.7521187,N,01347.4976085,E,4,15,0.80,122.7567,M,43.9749,M,1.5,0486*76
$GNGST,090453.50,0.058,0.036,0.017,1.790,0.035,0.017,0.042*40
$GPGGA,090453.60,5100.7521190,N,01347.4976069,E,4,15,0.80,122.7504,M,43.9749,M,1.6,0486*77
$GNGST,090453.60,0.058,0.036,0.017,1.789,0.035,0.017,0.042*4B
$GPGGA,090453.70,5100.7521176,N,01347.4976080,E,4,15,0.80,122.7537,M,43.9749,M,1.7,0486*78
$GNGST,090453.70,0.058,0.036,0.017,1.787,0.036,0.017,0.042*47
$GPGGA,090453.80,5100.7521164,N,01347.4976078,E,4,15,0.80,122.7508,M,43.9749,M,1.8,0486*70
$GNGST,090453.80,0.058,0.036,0.017,1.785,0.036,0.017,0.042*4A
$GPGGA,090453.90,5100.7521181,N,01347.4976065,E,4,15,0.80,122.7574,M,43.9749,M,1.9,0486*7C
$GNGST,090453.90,0.058,0.036,0.017,1.783,0.036,0.017,0.042*4D
$GPGGA,090454.00,5100.7521194,N,01347.4976054,E,4,15,0.80,122.7536,M,43.9749,M,2.0,0486*78
$GNGST,090454.00,0.058,0.036,0.017,1.781,0.036,0.017,0.042*41
$GPGGA,090454.10,5100.7521173,N,01347.4976070,E,4,15,0.80,122.7456,M,43.9749,M,1.1,0486*73
$GNGST,090454.10,0.058,0.035,0.017,1.798,0.035,0.017,0.042*48
$GPGGA,090454.20,5100.7521167,N,01347.4976022,E,4,15,0.80,122.7494,M,43.9749,M,1.2,0486*7F
$GNGST,090454.20,0.048,0.029,0.016,0.336,0.029,0.016,0.035*4B
$GPGGA,090454.30,5100.7521157,N,01347.4976053,E,4,15,0.80,122.7435,M,43.9749,M,1.3,0486*71
$GNGST,090454.30,0.048,0.029,0.016,0.333,0.029,0.016,0.035*4F
$GPGGA,090454.40,5100.7521171,N,01347.4976060,E,4,15,0.80,122.7446,M,43.9749,M,1.4,0486*71
$GNGST,090454.40,0.048,0.029,0.016,0.330,0.029,0.016,0.035*4B
$GPGGA,090454.50,5100.7521161,N,01347.4976012,E,4,15,0.80,122.7370,M,43.9749,M,1.5,0486*77
$GNGST,090454.50,0.048,0.029,0.016,0.328,0.029,0.016,0.035*43
$GPGGA,090454.60,5100.7521114,N,01347.4976034,E,4,15,0.80,122.7408,M,43.9749,M,1.6,0486*79
$GNGST,090454.60,0.048,0.029,0.016,0.325,0.029,0.016,0.035*4D
$GPGGA,090454.70,5100.7521131,N,01347.4976016,E,4,15,0.80,122.7473,M,43.9749,M,1.7,0486*72
$GNGST,090454.70,0.048,0.029,0.016,0.322,0.029,0.016,0.035*4B
$GPGGA,090454.80,5100.7521156,N,01347.4975998,E,4,15,0.80,122.7399,M,43.9749,M,0.8,0486*7D
$GNGST,090454.80,0.048,0.029,0.016,0.347,0.029,0.016,0.035*47
$GPGGA,090454.90,5100.7521153,N,01347.4976025,E,4,15,0.80,122.7406,M,43.9749,M,0.9,0486*75
$GNGST,090454.90,0.048,0.027,0.021,169.720,0.027,0.021,0.033*4B
$GPGGA,090455.00,5100.7521152,N,01347.4976055,E,4,15,0.80,122.7337,M,43.9749,M,1.0,0486*76
$GNGST,090455.00,0.048,0.027,0.021,169.716,0.027,0.021,0.033*46
$GPGGA,090455.10,5100.7521243,N,01347.4975962,E,4,14,0.80,122.7113,M,43.9749,M,1.1,0486*7E
$GNGST,090455.10,0.048,0.027,0.021,169.712,0.027,0.021,0.033*43
$GPGGA,090455.20,5100.7521230,N,01347.4975969,E,4,14,0.80,122.7149,M,43.9749,M,1.2,0486*7E
$GNGST,090455.20,0.048,0.027,0.021,169.709,0.027,0.021,0.033*4A
$GPGGA,090455.30,5100.7521225,N,01347.4975971,E,4,14,0.80,122.7169,M,43.9749,M,1.3,0486*71
$GNGST,090455.30,0.048,0.027,0.021,169.705,0.027,0.021,0.033*47
$GPGGA,090455.40,5100.7521228,N,01347.4975987,E,4,14,0.80,122.7218,M,43.9749,M,1.4,0486*70
$GNGST,090455.40,0.048,0.027,0.021,169.701,0.027,0.021,0.033*44
$GPGGA,090455.50,5100.7521214,N,01347.4975986,E,4,14,0.80,122.7158,M,43.9749,M,1.5,0486*79
$GNGST,090455.50,0.048,0.027,0.021,169.697,0.027,0.021,0.033*4B
$GPGGA,090455.60,5100.7521220,N,01347.4975992,E,4,14,0.80,122.7245,M,43.9749,M,0.6,0486*75
$GNGST,090455.60,0.048,0.027,0.021,169.731,0.027,0.021,0.033*45
$GPGGA,090455.70,5100.7521167,N,01347.4976065,E,4,15,0.80,122.7408,M,43.9749,M,0.7,0486*79
$GNGST,090455.70,0.061,0.037,0.020,178.140,0.037,0.020,0.045*4E
$GPGGA,090455.80,5100.7521166,N,01347.4976089,E,4,15,0.80,122.7331,M,43.9749,M,0.8,0486*77
$GNGST,090455.80,0.061,0.037,0.020,178.138,0.037,0.020,0.045*4E
$GPGGA,090455.90,5100.7521207,N,01347.4976034,E,4,14,0.80,122.7192,M,43.9749,M,0.9,0486*7F
$GNGST,090455.90,0.061,0.037,0.020,178.137,0.037,0.020,0.045*40
$GPGGA,090456.00,5100.7521217,N,01347.4976017,E,4,14,0.80,122.7170,M,43.9749,M,1.0,0486*71
$GNGST,090456.00,0.061,0.037,0.020,178.135,0.037,0.020,0.045*48
$GPGGA,090456.10,5100.7521205,N,01347.4976040,E,4,14,0.80,122.7150,M,43.9749,M,1.1,0486*72
$GNGST,090456.10,0.061,0.037,0.020,178.133,0.037,0.020,0.045*4F
$GPGGA,090456.20,5100.7521217,N,01347.4976032,E,4,14,0.80,122.7152,M,43.9749,M,1.2,0486*76
$GNGST,090456.20,0.061,0.037,0.020,178.132,0.037,0.020,0.045*4D
$GPGGA,090456.30,5100.7521237,N,01347.4976022,E,4,14,0.80,122.7166,M,43.9749,M,1.3,0486*72
$GNGST,090456.30,0.061,0.037,0.020,178.130,0.037,0.020,0.045*4E
$GPGGA,090456.40,5100.7521252,N,01347.4976007,E,4,14,0.80,122.7229,M,43.9749,M,1.4,0486*7E
$GNGST,090456.40,0.062,0.037,0.020,178.128,0.037,0.020,0.045*43
$GPGGA,090456.50,5100.7521234,N,01347.4976004,E,4,14,0.80,122.7176,M,43.9749,M,1.5,0486*74
$GNGST,090456.50,0.062,0.037,0.020,178.127,0.037,0.020,0.045*4D
$GPGGA,090456.60,5100.7521234,N,01347.4976010,E,4,14,0.80,122.7190,M,43.9749,M,1.6,0486*79
$GNGST,090456.60,0.062,0.037,0.020,178.125,0.037,0.020,0.045*4C
$GPGGA,090456.70,5100.7521219,N,01347.4975993,E,4,14,0.80,122.7262,M,43.9749,M,0.7,0486*78
$GNGST,090456.70,0.061,0.037,0.020,178.140,0.037,0.020,0.045*4D
$GPGGA,090456.80,5100.7521212,N,01347.4976000,E,4,14,0.80,122.7191,M,43.9749,M,0.8,0486*7C
$GNGST,090456.80,0.058,0.035,0.019,0.496,0.035,0.019,0.042*4F
$GPGGA,090456.90,5100.7521229,N,01347.4976020,E,4,14,0.80,122.7294,M,43.9749,M,0.9,0486*70
$GNGST,090456.90,0.058,0.035,0.019,0.494,0.035,0.019,0.042*4C
$GPGGA,090457.00,5100.7521209,N,01347.4976031,E,4,14,0.80,122.7320,M,43.9749,M,1.0,0486*7C
$GNGST,090457.00,0.058,0.035,0.019,0.492,0.035,0.019,0.042*42
$GPGGA,090457.10,5100.7521200,N,01347.4976006,E,4,14,0.80,122.7308,M,43.9749,M,1.1,0486*7B
$GNGST,090457.10,0.058,0.035,0.019,0.490,0.035,0.019,0.042*41
$GPGGA,090457.20,5100.7521202,N,01347.4976024,E,4,14,0.80,122.7292,M,43.9749,M,1.2,0486*7B
$GNGST,090457.20,0.058,0.035,0.019,0.488,0.035,0.019,0.042*4B
$GPGGA,090457.30,5100.7521209,N,01347.4976011,E,4,14,0.80,122.7356,M,43.9749,M,1.3,0486*7F
$GNGST,090457.30,0.058,0.035,0.019,0.486,0.035,0.019,0.042*44
$GPGGA,090457.40,5100.7521212,N,01347.4976030,E,4,14,0.80,122.7308,M,43.9749,M,1.4,0486*7D
$GNGST,090457.40,0.058,0.035,0.019,0.484,0.035,0.019,0.042*41
$GPGGA,090457.50,5100.7521203,N,01347.4976054,E,4,14,0.80,122.7289,M,43.9749,M,1.5,0486*77
$GNGST,090457.50,0.058,0.035,0.019,0.482,0.035,0.019,0.042*46
$GPGGA,090457.60,5100.7521211,N,01347.4976024,E,4,14,0.80,122.7281,M,43.9749,M,0.6,0486*7A
$GNGST,090457.60,0.058,0.035,0.019,0.500,0.035,0.019,0.042*4E
$GPGGA,090457.70,5100.7521207,N,01347.4976033,E,4,14,0.84,122.7267,M,43.9749,M,0.7,0486*77
$GNGST,090457.70,0.058,0.037,0.013,4.042,0.037,0.013,0.043*49
$GPGGA,090457.80,5100.7521216,N,01347.4976012,E,4,14,0.84,122.7294,M,43.9749,M,0.8,0486*78
$GNGST,090457.80,0.058,0.037,0.013,4.039,0.037,0.013,0.043*4A
$GPGGA,090457.90,5100.7521222,N,01347.4975993,E,4,14,0.84,122.7294,M,43.9749,M,0.9,0486*7C
$GNGST,090457.90,0.058,0.037,0.013,4.037,0.037,0.013,0.043*45
$GPGGA,090458.00,5100.7521207,N,01347.4975983,E,4,14,0.84,122.7297,M,43.9749,M,1.0,0486*77
$GNGST,090458.00,0.058,0.037,0.013,4.035,0.037,0.013,0.043*41
$GPGGA,090458.10,5100.7521202,N,01347.4976009,E,4,14,0.84,122.7367,M,43.9749,M,1.1,0486*74
$GNGST,090458.10,0.058,0.037,0.013,4.032,0.037,0.013,0.043*47
$GPGGA,090458.20,5100.7521206,N,01347.4976036,E,4,14,0.84,122.7385,M,43.9749,M,1.2,0486*70
$GNGST,090458.20,0.058,0.037,0.013,4.030,0.037,0.013,0.043*46
$GPGGA,090458.30,5100.7521217,N,01347.4976029,E,4,14,0.84,122.7375,M,43.9749,M,1.3,0486*71
$GNGST,090458.30,0.058,0.037,0.013,4.028,0.037,0.013,0.043*4E
$GPGGA,090458.40,5100.7521210,N,01347.4976058,E,4,14,0.84,122.7389,M,43.9749,M,1.4,0486*73
$GNGST,090458.40,0.058,0.037,0.013,4.025,0.037,0.013,0.043*44
$GPGGA,090458.50,5100.7521206,N,01347.4976056,E,4,14,0.84,122.7333,M,43.9749,M,1.5,0486*7B
$GNGST,090458.50,0.058,0.037,0.013,4.023,0.037,0.013,0.043*43
$GPGGA,090458.60,5100.7521203,N,01347.4976016,E,4,14,0.84,122.7234,M,43.9749,M,0.6,0486*7D
$GNGST,090458.60,0.058,0.037,0.013,4.044,0.037,0.013,0.043*41
$GPGGA,090458.70,5100.7521216,N,01347.4976001,E,4,14,0.84,122.7319,M,43.9749,M,0.7,0486*71
$GNGST,090458.70,0.058,0.037,0.013,4.042,0.037,0.013,0.043*46
$GPGGA,090458.80,5100.7521214,N,01347.4976011,E,4,14,0.84,122.7289,M,43.9749,M,0.8,0486*7A
$GNGST,090458.80,0.063,0.041,0.010,3.770,0.040,0.010,0.047*45
$GPGGA,090458.90,5100.7521231,N,01347.4975991,E,4,14,0.84,122.7250,M,43.9749,M,0.9,0486*7B
$GNGST,090458.90,0.063,0.041,0.010,3.768,0.040,0.010,0.047*4D
$GPGGA,090459.00,5100.7521233,N,01347.4976005,E,4,14,0.84,122.7246,M,43.9749,M,1.0,0486*79
$GNGST,090459.00,0.063,0.041,0.010,3.767,0.040,0.010,0.047*4A
$GPGGA,090459.10,5100.7521221,N,01347.4975993,E,4,14,0.84,122.7227,M,43.9749,M,1.1,0486*78
$GNGST,090459.10,0.063,0.041,0.010,3.765,0.040,0.010,0.047*49
$GPGGA,090459.20,5100.7521229,N,01347.4976003,E,4,14,0.84,122.7243,M,43.9749,M,1.2,0486*71
$GNGST,090459.20,0.063,0.041,0.010,3.763,0.040,0.010,0.047*4C
$GPGGA,090459.30,5100.7521237,N,01347.4975998,E,4,14,0.84,122.7318,M,43.9749,M,1.3,0486*79
$GNGST,090459.30,0.063,0.041,0.010,3.761,0.040,0.010,0.047*4F
$GPGGA,090459.40,5100.7521228,N,01347.4976014,E,4,14,0.84,122.7309,M,43.9749,M,1.4,0486*79
$GNGST,090459.40,0.063,0.041,0.010,3.759,0.040,0.010,0.047*43
$GPGGA,090459.50,5100.7521228,N,01347.4976011,E,4,14,0.84,122.7281,M,43.9749,M,1.5,0486*7D
$GNGST,090459.50,0.063,0.041,0.010,3.758,0.040,0.010,0.047*43
$GPGGA,090459.60,5100.7521211,N,01347.4975992,E,4,14,0.84,122.7245,M,43.9749,M,0.6,0486*7F
$GNGST,090459.60,0.063,0.040,0.010,3.774,0.040,0.010,0.047*4F
$GPGGA,090459.70,5100.7521233,N,01347.4975973,E,4,14,0.84,122.7280,M,43.9749,M,0.7,0486*79
$GNGST,090459.70,0.068,0.044,0.011,5.137,0.044,0.012,0.051*46
$GPGGA,090459.80,5100.7521244,N,01347.4975959,E,4,14,0.84,122.7208,M,43.9749,M,0.8,0486*71
$GNGST,090459.80,0.068,0.044,0.011,5.135,0.044,0.012,0.051*4B
$GPGGA,090459.90,5100.7521258,N,01347.4975969,E,4,14,0.84,122.7308,M,43.9749,M,0.9,0486*7E
$GNGST,090459.90,0.068,0.044,0.011,5.134,0.044,0.012,0.051*4B
$GPGGA,090500.00,5100.7521230,N,01347.4975984,E,4,14,0.84,122.7229,M,43.9749,M,1.0,0486*7D
$GNGST,090500.00,0.068,0.044,0.011,5.132,0.044,0.012,0.051*49
$GPGGA,090500.10,5100.7521228,N,01347.4975987,E,4,14,0.84,122.7282,M,43.9749,M,1.1,0486*76
$GNGST,090500.10,0.068,0.044,0.011,5.131,0.044,0.012,0.051*4B
$GPGGA,090500.20,5100.7521236,N,01347.4976010,E,4,14,0.84,122.7312,M,43.9749,M,1.2,0486*75
$GNGST,090500.20,0.068,0.044,0.011,5.129,0.044,0.012,0.051*41
$GPGGA,090500.30,5100.7521235,N,01347.4975997,E,4,14,0.84,122.7276,M,43.9749,M,1.3,0486*70
$GNGST,090500.30,0.068,0.044,0.011,5.128,0.044,0.012,0.051*41
$GPGGA,090500.40,5100.7521250,N,01347.4976019,E,4,14,0.84,122.7257,M,43.9749,M,1.4,0486*7C
$GNGST,090500.40,0.068,0.044,0.011,5.126,0.044,0.012,0.051*48
$GPGGA,090500.50,5100.7521231,N,01347.4975993,E,4,14,0.84,122.7238,M,43.9749,M,1.5,0486*7A
$GNGST,090500.50,0.068,0.044,0.011,5.125,0.044,0.012,0.051*4A
$GPGGA,090500.60,5100.7521236,N,01347.4975979,E,4,14,0.84,122.7262,M,43.9749,M,0.6,0486*77
$GNGST,090500.60,0.068,0.044,0.011,5.139,0.044,0.012,0.051*44
$GPGGA,090500.70,5100.7521237,N,01347.4975995,E,4,14,0.84,122.7213,M,43.9749,M,0.7,0486*72
$GNGST,090500.70,0.071,0.046,0.011,5.099,0.046,0.012,0.053*44
$GPGGA,090500.80,5100.7521222,N,01347.4975977,E,4,14,0.84,122.7207,M,43.9749,M,0.8,0486*7F
$GNGST,090500.80,0.071,0.046,0.011,5.098,0.046,0.012,0.053*4A
$GPGGA,090500.90,5100.7521237,N,01347.4975970,E,4,14,0.84,122.7191,M,43.9749,M,0.9,0486*70
$GNGST,090500.90,0.071,0.046,0.011,5.096,0.046,0.012,0.053*45
$GPGGA,090501.00,5100.7521225,N,01347.4975989,E,4,14,0.84,122.7313,M,43.9749,M,1.0,0486*7D
$GNGST,090501.00,0.071,0.046,0.011,5.095,0.046,0.012,0.053*4E
$GPGGA,090501.10,5100.7521254,N,01347.4975978,E,4,14,0.84,122.7276,M,43.9749,M,1.1,0486*77
$GNGST,090501.10,0.071,0.046,0.011,5.094,0.046,0.012,0.053*4E
$GPGGA,090501.20,5100.7521240,N,01347.4975999,E,4,14,0.84,122.7317,M,43.9749,M,1.2,0486*7B
$GNGST,090501.20,0.071,0.046,0.011,5.092,0.046,0.012,0.053*4B
$GPGGA,090501.30,5100.7521249,N,01347.4976006,E,4,14,0.84,122.7252,M,43.9749,M,1.3,0486*7E
$GNGST,090501.30,0.071,0.046,0.011,5.091,0.046,0.012,0.053*49
$GPGGA,090501.40,5100.7521255,N,01347.4976001,E,4,14,0.84,122.7273,M,43.9749,M,1.4,0486*77
$GNGST,090501.40,0.071,0.046,0.011,5.089,0.046,0.012,0.053*47
$GPGGA,090501.50,5100.7521240,N,01347.4975989,E,4,14,0.84,122.7243,M,43.9749,M,1.5,0486*7A
$GNGST,090501.50,0.071,0.046,0.011,5.088,0.046,0.012,0.053*47
$GPGGA,090501.60,5100.7521233,N,01347.4976002,E,4,14,0.84,122.7219,M,43.9749,M,0.6,0486*79
$GNGST,090501.60,0.071,0.046,0.011,5.101,0.046,0.012,0.052*45
$GPGGA,090501.70,5100.7521227,N,01347.4976000,E,4,14,0.84,122.7303,M,43.9749,M,0.7,0486*74
$GNGST,090501.70,0.060,0.038,0.014,1.823,0.038,0.014,0.045*4C
$GPGGA,090501.80,5100.7521210,N,01347.4975985,E,4,14,0.84,122.7243,M,43.9749,M,0.8,0486*72
$GNGST,090501.80,0.060,0.038,0.014,1.821,0.038,0.014,0.045*41
$GPGGA,090501.90,5100.7521234,N,01347.4975991,E,4,14,0.84,122.7260,M,43.9749,M,0.9,0486*70
$GNGST,090501.90,0.060,0.038,0.014,1.818,0.038,0.014,0.045*4A
$GPGGA,090502.00,5100.7521210,N,01347.4975970,E,4,14,0.84,122.7249,M,43.9749,M,1.0,0486*70
$GNGST,090502.00,0.060,0.038,0.014,1.816,0.038,0.014,0.045*4E
$GPGGA,090502.10,5100.7521215,N,01347.4975977,E,4,14,0.84,122.7300,M,43.9749,M,1.1,0486*7E
$GNGST,090502.10,0.060,0.038,0.014,1.814,0.038,0.014,0.045*4D
$GPGGA,090502.20,5100.7521214,N,01347.4975972,E,4,14,0.84,122.7244,M,43.9749,M,1.2,0486*7B
$GNGST,090502.20,0.060,0.038,0.014,1.812,0.038,0.014,0.045*48
$GPGGA,090502.30,5100.7521209,N,01347.4975979,E,4,14,0.84,122.7182,M,43.9749,M,1.3,0486*75
$GNGST,090502.30,0.060,0.038,0.014,1.809,0.038,0.014,0.045*43
$GPGGA,090502.40,5100.7521203,N,01347.4975995,E,4,14,0.84,122.7280,M,43.9749,M,1.4,0486*7C
$GNGST,090502.40,0.060,0.038,0.014,1.807,0.038,0.014,0.045*4A
$GPGGA,090502.50,5100.7521213,N,01347.4975983,E,4,14,0.84,122.7225,M,43.9749,M,1.5,0486*75
$GNGST,090502.50,0.060,0.038,0.014,1.805,0.038,0.014,0.045*49
$GPGGA,090502.60,5100.7521219,N,01347.4975988,E,4,14,0.84,122.7318,M,43.9749,M,1.6,0486*7B
$GNGST,090502.60,0.060,0.038,0.014,1.803,0.038,0.014,0.045*4C
$GPGGA,090502.70,5100.7521222,N,01347.4975992,E,4,14,0.84,122.7316,M,43.9749,M,1.7,0486*76
$GNGST,090502.70,0.060,0.038,0.014,1.800,0.038,0.014,0.045*4E
$GPGGA,090502.80,5100.7521227,N,01347.4976000,E,4,14,0.84,122.7270,M,43.9749,M,0.8,0486*72
$GNGST,090502.80,0.060,0.038,0.014,1.821,0.038,0.014,0.045*42
$GPGGA,090502.90,5100.7521243,N,01347.4976014,E,4,14,0.84,122.7259,M,43.9749,M,0.9,0486*7E
$GNGST,090502.90,0.070,0.044,0.011,3.221,0.044,0.011,0.052*4C
$GPGGA,090503.00,5100.7521245,N,01347.4976011,E,4,14,0.84,122.7188,M,43.9749,M,1.0,0486*72
